item,title,description,img_url,product_url,latitude,longitude,price,delivery,dates,extended_attributes,seller_names,new_row,search_term
m2180800625,2 Asahi (Honeywell) Pentax bodies voor verzamelaar en hobby,Asahi pentax sp 1000 in redelijke staat. De sluiter werkt zo te horen goed. Ook de langzaamste tijden. Achterwand opent moeilijk. ,https://images.marktplaats.com/api/v1/listing-mp-p/images/dc/dc96f5f5-2470-48bf-ba35-decd32eeccfb?rule=ecg_mp_eps$_82.jpg,https://link.marktplaats.nl/m2180800625,53.280296466197,5.7008242078504,0.0,Ophalen of Verzenden,Vandaag,Ophalen of Verzenden,Piet Blokland,False,
m2180657717,Pentax Asahi ME Super analoge camera,"Pentax me super met pentax-m 50mm, 1:1.7. Lens. + Pentax-m 28mm, 1:2.8 Lens + panagor pmc auto tele 135mm, 1:2.8 Lens + philips fl",https://images.marktplaats.com/api/v1/listing-mp-p/images/5c/5cff92e0-a2ac-49c4-9aaa-42a887615884?rule=ecg_mp_eps$_82.jpg,https://link.marktplaats.nl/m2180657717,52.03584924003,4.2799550664313,0.0,Ophalen of Verzenden,Vandaag,Ophalen of Verzenden,Petervdn,False,
m2176655945,PENTAX ME ASAHI Camera met Lenzen,"Pentax me camera met lenzen en een mooie opbergtas en lenzen , foto’s zijn een onderdeel van de beschrijving . Verzendkosten zijn ",https://images.marktplaats.com/api/v1/listing-mp-p/images/c8/c812994d-215b-4f31-aae1-dc98fd364171?rule=ecg_mp_eps$_82.jpg,https://link.marktplaats.nl/m2176655945,51.766507128542,4.0701768785501,0.0,Ophalen of Verzenden,12 okt 24,Ophalen of Verzenden,Frits,False,
m2168907711,Prachtige Asahi Pentax P30 analoge spiegelreflexcamera.,De mooiste manier van fotograferen. Weer helemaal in opkomst. Automatisch de camera de juiste verhouding laten kiezen tussen diafr,https://images.marktplaats.com/api/v1/listing-mp-p/images/d1/d17d14eb-904b-4d20-9e07-31ff2d5068fa?rule=ecg_mp_eps$_82.jpg,https://link.marktplaats.nl/m2168907711,51.85281232071,5.3757934711018,75.0,Ophalen,1 okt 24,Ophalen,Jaap Gorter,False,
m2157591483,Camera Asahi Pentax,Uit boedel ongebruikte camera asahi pentax zoom 70-s met origineel hoesje. Niet getest omdat batterij zo goed als leeg is. Verzend,https://images.marktplaats.com/api/v1/listing-mp-p/images/33/338c95c1-4125-47e5-9868-d9218d4e8ef2?rule=ecg_mp_eps$_82.jpg,https://link.marktplaats.nl/m2157591483,51.918387014661,4.6262432273713,0.0,Ophalen of Verzenden,13 sep 24,Ophalen of Verzenden,Pieter,False,
m2179300893,fototoestel,Weinig gebruikt fototoestel asahi pentax k1000 met diverse lenzen in koffer  (1ste eigenaar) fotograveren was niet mijn hobby.,https://images.marktplaats.com/api/v1/listing-mp-p/images/c1/c1e00a34-05a1-4170-86e9-5a1c4b8a9374?rule=ecg_mp_eps$_82.jpg,https://link.marktplaats.nl/m2179300893,52.262356108039,6.1658656956376,0.0,Ophalen,Vandaag,Ophalen,Klaas,False,
m2176078063,Pentax MZ-3 #Pentax #Asahi 50mm #MZ3,Pentax analoog met objectief. Merk: pentax model: mz-3 objectief: 50mm 1:1.7 In mooie staat. Verzenden voor risico en kosten koper,https://images.marktplaats.com/api/v1/listing-mp-p/images/dd/dd6a8932-a6d3-4d46-9707-a46c56dda5ba?rule=ecg_mp_eps$_82.jpg,https://link.marktplaats.nl/m2176078063,52.538339020667,6.0612742923541,75.0,Verzenden,Gisteren,Verzenden,Sander,False,
m2177686057,fotocamera en toebehoren,"Te koop camera met toebehoren set met camera, lenzen en toebehoren. Met asahi pentax sp 1000. Werkt nog prima, oa gecheckt op werk",https://images.marktplaats.com/api/v1/listing-mp-p/images/74/74478bea-578f-45c8-8840-6d5c4f510884?rule=ecg_mp_eps$_82.jpg,https://link.marktplaats.nl/m2177686057,52.571907545703,5.6402654553149,0.0,Ophalen,Gisteren,Ophalen,Steenhuizen,False,
m2177612347,Asahi Pentax hoekzoeker,Asahi pentax hoekzoeker,https://images.marktplaats.com/api/v1/listing-mp-p/images/bd/bd58388f-8693-42eb-9756-ec35db140ea4?rule=ecg_mp_eps$_82.jpg,https://link.marktplaats.nl/m2177612347,52.411780226335,4.8899967199083,25.0,Ophalen of Verzenden,13 okt 24,Ophalen of Verzenden,Kees,False,
m2174923295,Asahi Pentax SP F camera incl. Takumar 50mm 1:1.4,Zowel de camera als de lens zijn in een prachtige conditie. Hele schone lens en bladen. Alles werkt naar behoren,https://images.marktplaats.com/api/v1/listing-mp-p/images/26/260316fe-7dcb-4906-9351-4fc1e6332233?rule=ecg_mp_eps$_82.jpg,https://link.marktplaats.nl/m2174923295,52.053684401906,4.6554240699868,0.0,Ophalen of Verzenden,9 okt 24,Ophalen of Verzenden,Kramp,False,
m2175552769,Vintage Pentax ME Super 35mm camera,Vintage pentax me super 35mm camera met accessoires pentax me supercamera smc pentax-m 1:2 50 mm 9581909 asahi optical,https://images.marktplaats.com/api/v1/listing-mp-p/images/ae/aec8150f-3209-45de-9b22-41fa3d169c96?rule=ecg_mp_eps$_82.jpg,https://link.marktplaats.nl/m2175552769,51.893863822887,4.4965621393343,250.0,Ophalen of Verzenden,10 okt 24,Ophalen of Verzenden,Elen,False,
m2176057697,Asahi Pentax Spotmatic,"Supertakumar 1:1.4/50, Gemini skylight 49mm .made in japan",https://images.marktplaats.com/api/v1/listing-mp-p/images/1a/1a4d50d2-9c65-4fd4-9839-6bb81dfcaa79?rule=ecg_mp_eps$_82.jpg,https://link.marktplaats.nl/m2176057697,52.368355658827,4.9106138904711,60.0,Ophalen of Verzenden,11 okt 24,Ophalen of Verzenden,mesconoa,False,
m2178467945,Pentax ME camera,Asahi pentax me-m 1:1.7 50 Mm lens is gebruikt maar hij functioneert nog prima,https://images.marktplaats.com/api/v1/listing-mp-p/images/9f/9ff89956-d3e2-4bea-bf60-5e80250cdfa0?rule=ecg_mp_eps$_82.jpg,https://link.marktplaats.nl/m2178467945,52.178082240582,5.3012553068386,0.0,Ophalen,14 okt 24,Ophalen,Lise,False,
m2175776427,Foto camera Pentax Asahi SP 1000 met Panagor lens,Foto camera: asahi pentax sp 1000 5773020. Een echte klassieker in de geschiedenis van de fotografie! Panagor lens pmc autowide an,https://images.marktplaats.com/api/v1/listing-mp-p/images/1c/1c91f7da-3f8e-4dc5-9362-3b0137fc4646?rule=ecg_mp_eps$_82.jpg,https://link.marktplaats.nl/m2175776427,52.232241504963,6.9013564420913,0.0,Ophalen,11 okt 24,Ophalen,JP,False,
m2175952471,Asahi Pentax Bellows macrobalg,"Asahi pentax bellows macrobalg, voor 35mm slr. In nieuw staat en originele verpakking.",https://images.marktplaats.com/api/v1/listing-mp-p/images/f3/f36ccb2b-6000-4a74-b37c-ade5e559eaec?rule=ecg_mp_eps$_82.jpg,https://link.marktplaats.nl/m2175952471,52.126646085215,5.4443636688226,50.0,Ophalen,11 okt 24,Ophalen,anton k,False,
m2180152725,Pentax asahi auto 110 18mm f2.8 werkend,Wat een pareltje! De minuscule pentax 110 voor 110mm film uiteraard. En dan ook nog met de bijzondere 18mm f2.8 Die trouwens speci,https://images.marktplaats.com/api/v1/listing-mp-p/images/b3/b300b944-b0b4-418f-bd2a-ba2d0fbfeead?rule=ecg_mp_eps$_82.jpg,https://link.marktplaats.nl/m2180152725,52.382564898239,4.8887086850155,95.0,Ophalen of Verzenden,Gisteren,Ophalen of Verzenden,Jordy,False,
m2139134416,Pentax asahi K 1000,Pentax asahi k 1000,https://images.marktplaats.com/api/v1/listing-mp-p/images/7e/7ebe1345-0700-426f-a740-5cc613757929?rule=ecg_mp_eps$_82.jpg,https://link.marktplaats.nl/m2139134416,53.329834602294,6.5181148638547,0.0,Ophalen of Verzenden,22 jul 24,Ophalen of Verzenden,Reinie Bos,False,
m2158970759,Asahi Pentax hoek zoeker,Asahi pentax hoek zoeker nog in prima staat.,https://images.marktplaats.com/api/v1/listing-mp-p/images/1b/1b720f69-b775-4b13-a35c-fdebadcce720?rule=ecg_mp_eps$_82.jpg,https://link.marktplaats.nl/m2158970759,51.848734526722,4.1607529142582,0.0,Ophalen of Verzenden,16 sep 24,Ophalen of Verzenden,Cok,False,
m2154675919,Asahi Pentax SP 1000 SLR + SMC Takumar 55mm f2 + hoes,"In nette en volledig werkende conditie. 100,- Vaste prijs andere biedingen heeft geen zin alleen verzending via postnl of ophalen",https://images.marktplaats.com/api/v1/listing-mp-p/images/3d/3deb0e53-7d76-430c-878d-80d8932d4da0?rule=ecg_mp_eps$_82.jpg,https://link.marktplaats.nl/m2154675919,52.123574786402,6.2265534326538,100.0,Ophalen of Verzenden,5 sep 24,Ophalen of Verzenden,Fotografie and More,False,
m2153146091,ASAHI PENTAX hoekzoeker met origineel bewaarhoesje,Asahi pentax right angle view finder (hoekzoeker) met bewaarhoesje origineel pentax merk. Verzendkosten zijn voor de koper.,https://images.marktplaats.com/api/v1/listing-mp-p/images/b0/b0dc67d3-e78f-4ad0-9a61-e854efdd9a31?rule=ecg_mp_eps$_82.jpg,https://link.marktplaats.nl/m2153146091,52.229408926769,5.1757182921859,35.0,Ophalen of Verzenden,1 sep 24,Ophalen of Verzenden,Alexandra,False,
m2153589881,Asahi Pentax Spotmatic 2 camera gebruiksaanwijzing,Deze gebruiksaanwijzing is in de engelse taal  hij heeft 48 blad zijden het gewicht is 80 gram  doe een mooi bod ex verz of halen ,https://images.marktplaats.com/api/v1/listing-mp-p/images/ce/cebcb994-d20d-446e-9d53-6dd408aa7e97?rule=ecg_mp_eps$_82.jpg,https://link.marktplaats.nl/m2153589881,52.678292465632,4.8498024643326,0.0,Ophalen of Verzenden,2 sep 24,Ophalen of Verzenden,Henk,False,
m2143941699,Asahi Pentax Spotmatic SP 1000 35mm SLR Film Camera,"Asahi pentax spotmatic sp 1000 35mm slr film camera. Heeft gebruikssporen, werkt nog helemaal goed. Lens is netjes. Ophalen kan, e",https://images.marktplaats.com/api/v1/listing-mp-p/images/4c/4c89a4a1-d023-42a7-ad5c-20db71abe5e4?rule=ecg_mp_eps$_82.jpg,https://link.marktplaats.nl/m2143941699,51.658902149236,5.2918123952189,35.0,Ophalen of Verzenden,5 aug 24,Ophalen of Verzenden,Robin22,False,
m2163381583,Asahi Pentax Super-A spiegelreflex camera met toebehoren.,"Asahi pentax super-a spiegelreflex € 150,- met metz flitser 45 ct-4 € 60,- pentax-m lichtgevoelige-lens 1,4 50 mm. &euro",https://images.marktplaats.com/api/v1/listing-mp-p/images/3b/3b5d00cc-4bf9-4a31-9b59-cede4f46cfe2?rule=ecg_mp_eps$_82.jpg,https://link.marktplaats.nl/m2163381583,52.11634153576,5.0881465720035,450.0,Ophalen,24 sep 24,Ophalen,Leo,False,
m2154088030,"Asahi Pentax S1a body M42 (voor parts of reparatie) 9,99€","3x asahi pentax spotmatic body's (sp en s1a) (voor reparatie of ""for parts"", verzamelaar e.a. Doeleinden) met m42 mo",https://images.marktplaats.com/api/v1/listing-mp-p/images/8b/8b77eb0b-286a-4644-9049-1b705497d0e3?rule=ecg_mp_eps$_82.jpg,https://link.marktplaats.nl/m2154088030,50.971321178746,5.976863775125,9.99,Ophalen of Verzenden,3 sep 24,Ophalen of Verzenden,willy,False,
m2164841893,Asahi Pentax MC camera gebruiksaanwijzing,Dit boekje heeft 49 bladzijden het ziet er netjes uit gewicht is 39 gram vragen naar andere merken kan altijd want wij hebben ook ,https://images.marktplaats.com/api/v1/listing-mp-p/images/de/de2c32a7-b3a2-4ca9-a6d8-14882e82b569?rule=ecg_mp_eps$_82.jpg,https://link.marktplaats.nl/m2164841893,52.678292465632,4.8498024643326,0.0,Ophalen of Verzenden,26 sep 24,Ophalen of Verzenden,Henk,False,
m2165651131,Asahi Pentax K1000 body 35mm film spiegelreflex + batterij,"Zo lang de advertentie hier staat is het product te koop neem foto's op 35mm film in de herfst van familie, vrienden of pittor",https://images.marktplaats.com/api/v1/listing-mp-p/images/04/04b0a6d2-3a34-4500-97f4-aba5dd1ea140?rule=ecg_mp_eps$_82.jpg,https://link.marktplaats.nl/m2165651131,51.694776886936,3.7425852477311,220.0,Ophalen of Verzenden,27 sep 24,Ophalen of Verzenden,woke LGBTQIA+ propagandist,False,
m2174014685,Pentax telelens 80 - 200,Asahi pentax 80 -200 mm telelens en  hoekzoeker,https://images.marktplaats.com/api/v1/listing-mp-p/images/0d/0d268e81-4a4d-4810-ac0e-04b7eeff20b9?rule=ecg_mp_eps$_82.jpg,https://link.marktplaats.nl/m2174014685,51.495229675868,4.2844081044611,0.0,Ophalen of Verzenden,8 okt 24,Ophalen of Verzenden,kees,False,
m2140263670,Asahi Pentax Lens 35-105mm (RMC Tokina),Asahi lens 35-105mm mint condition 2 lens covers front and back very rare lens in perfect condition,https://images.marktplaats.com/api/v1/listing-mp-p/images/7c/7c494176-afcd-4cb4-8d57-3ae0f4923b84?rule=ecg_mp_eps$_82.jpg,https://link.marktplaats.nl/m2140263670,51.594747264491,4.7970126884801,40.0,Ophalen of Verzenden,25 jul 24,Ophalen of Verzenden,Kai Rotmans,False,
m2164394325,VINTAGE RETRO WERKEND ASAHI PENTAX ME SUPER INCL SMC LENS,Zeer mooie pentax me super in de zwarte uitvoering. Camera werkt volledig en alle functies werken. Komt met een gewilde pentax asa,https://images.marktplaats.com/api/v1/listing-mp-p/images/49/4927afff-6160-4ebc-b99a-1d43d499ba25?rule=ecg_mp_eps$_82.jpg,https://link.marktplaats.nl/m2164394325,52.196959059112,6.8767602709954,85.0,Ophalen of Verzenden,25 sep 24,Ophalen of Verzenden,Vintage & More,False,
m2155873921,Pentax asahi ME spiegelreflexcamera met 2 lenzen...,Te koop analoge pentax asahi me spiegelreflexcamera met 2 lenzen voor verdere infos zie fotos lenzen zijn zeer helder camera is no,https://images.marktplaats.com/api/v1/listing-mp-p/images/69/69b84953-1061-492e-9164-1d046d4cd9fc?rule=ecg_mp_eps$_82.jpg,https://link.marktplaats.nl/m2155873921,51.560909250592,3.5020182714231,0.0,Ophalen of Verzenden,8 sep 24,Ophalen of Verzenden,claudia,False,
m2172475909,Pentax K1000 + Pentax-M 50mm lens,Vintage analoge asahi pentax camera met 50mm lens en lensdop. Camera en lichtmeter werkt naar behoren.,https://images.marktplaats.com/api/v1/listing-mp-p/images/d6/d6badf6d-4cb7-4be8-98b0-e0f82a5db657?rule=ecg_mp_eps$_82.jpg,https://link.marktplaats.nl/m2172475909,50.922085027149,5.951118772248,120.0,Ophalen of Verzenden,6 okt 24,Ophalen of Verzenden,JR,False,
m2174651885,knoopcel voor Asahi pentax cameras,"1.35 V vervanger voor rm400r of v400px. Deze knoopcel is geschikt voor de spotmatic, spotmatic ii, sp500 en sp1000.  Niet voor de ",https://images.marktplaats.com/api/v1/listing-mp-p/images/24/24b340f5-4a42-42e1-a66b-199b77c2e085?rule=ecg_mp_eps$_82.jpg,https://link.marktplaats.nl/m2174651885,51.78829577722,4.5495328466129,5.0,Ophalen of Verzenden,9 okt 24,Ophalen of Verzenden,jaap h,False,
m2157961640,Pentax asahi,Complete set om te fotograferen,https://images.marktplaats.com/api/v1/listing-mp-p/images/ff/ff182037-fd44-47bd-8f41-7142b74d04d3?rule=ecg_mp_eps$_82.jpg,https://link.marktplaats.nl/m2157961640,51.888625823906,4.5569352972946,300.0,Ophalen of Verzenden,17 sep 24,Ophalen of Verzenden,Leroy,False,
m2155512995,Asahi Pentax auto 110 met lenzen,"Camera asahi pentax auto 110 - de kleinste spiegelreflexcamera ooit - met de standaardlens 24mm f/2.8,En de tele 50mm f/2.8. Daarb",https://images.marktplaats.com/api/v1/listing-mp-p/images/89/89b9bd57-780b-4c0f-8a51-d1a65f918a33?rule=ecg_mp_eps$_82.jpg,https://link.marktplaats.nl/m2155512995,52.285105057034,6.1576270176924,0.0,Ophalen,7 sep 24,Ophalen,KeesM,False,
m2159529294,Asahi Pentax MV 1 camera gebruiksaanwijzing,Het boekje heeft 36 bladzijden het gewicht is 36 gram doe een mooi bod ex verz of halen mvgr henk b,https://images.marktplaats.com/api/v1/listing-mp-p/images/96/96456376-5d90-489a-82fc-3f72002a6770?rule=ecg_mp_eps$_82.jpg,https://link.marktplaats.nl/m2159529294,52.678292465632,4.8498024643326,0.0,Ophalen of Verzenden,18 sep 24,Ophalen of Verzenden,Henk,False,
m2164387319,VINTAGE RETRO WERKEND ASAHI PENTAX ES II - TAKUMAR 200 LENS,Zeer zeldzame en mooie pentax es ii in de zwarte uitvoering. Camera werkt volledig en alle functies werken. Komt met een gewilde p,https://images.marktplaats.com/api/v1/listing-mp-p/images/76/769dc34e-f2e4-4639-b2e6-ae5f51267ec8?rule=ecg_mp_eps$_82.jpg,https://link.marktplaats.nl/m2164387319,52.196959059112,6.8767602709954,160.0,Ophalen of Verzenden,25 sep 24,Ophalen of Verzenden,Vintage & More,False,
m2141662074,Asahi pentax MV 1,De conditie is goed,https://images.marktplaats.com/api/v1/listing-mp-p/images/d9/d9e2c89a-ec1b-4107-8314-a2db9b823fd5?rule=ecg_mp_eps$_82.jpg,https://link.marktplaats.nl/m2141662074,53.14708732289,6.270656395388,89.0,Ophalen of Verzenden,30 jul 24,Ophalen of Verzenden,focus,False,
m2176977793,Asahi Pentax MZ 50 spiegelreflex camera met Sigma lens,Asahi pentax spiegelreflex camera met sigma lens,https://images.marktplaats.com/api/v1/listing-mp-p/images/8e/8efcdf5c-6ec2-4aa6-b7b0-1e0ea86bc732?rule=ecg_mp_eps$_82.jpg,https://link.marktplaats.nl/m2176977793,52.309906953899,5.0242998128533,0.0,Ophalen of Verzenden,12 okt 24,Ophalen of Verzenden,Lawrence,False,
m2137629363,*Asahi Pentax SP 1000 camera in tas,Dit toestel werkt goed een ziet er netjes uit de lens is een smc takumar 1:2/55 asahi opt co japan doe een mooi bod ex verz of hal,https://images.marktplaats.com/api/v1/listing-mp-p/images/58/5809d7f0-109e-4a5e-9cea-9a6261f5183f?rule=ecg_mp_eps$_82.jpg,https://link.marktplaats.nl/m2137629363,52.678292465632,4.8498024643326,0.0,Ophalen of Verzenden,17 jul 24,Ophalen of Verzenden,Henk,False,
m2151379954,Pentax Asahi Spotmatic F,"Deze camera heeft rondom wat gebruikerssporen ,zie foto's voor details. Kan wel een onderhoudsbeurtje gebruiken, maar is verde",https://images.marktplaats.com/api/v1/listing-mp-p/images/ee/ee1fde63-8c73-43c6-8cdc-cd5823ded01d?rule=ecg_mp_eps$_82.jpg,https://link.marktplaats.nl/m2151379954,51.565495186016,5.105711924632,125.0,Ophalen of Verzenden,27 aug 24,Ophalen of Verzenden,Kringloop 013,False,
m2150819333,Asahi Pentax  MV 1,Asahi pentax mv 1,https://images.marktplaats.com/api/v1/listing-mp-p/images/ef/ef2f0087-55c0-4ca7-8254-d8d80cf68ad0?rule=ecg_mp_eps$_82.jpg,https://link.marktplaats.nl/m2150819333,53.147208047503,6.269782633082,89.0,Ophalen of Verzenden,25 aug 24,Ophalen of Verzenden,brandpunt,False,
m2153172576,Asahi pentax compleet,Asahi pentax compleet,https://images.marktplaats.com/api/v1/listing-mp-p/images/8f/8f05df7a-4242-4fcb-bc3c-57b00e9fadd9?rule=ecg_mp_eps$_82.jpg,https://link.marktplaats.nl/m2153172576,52.067507220766,4.3157483867383,250.0,Ophalen of Verzenden,1 sep 24,Ophalen of Verzenden,BenAli,False,
m2152427191,Pentax Asahi camera met extra lens en tas,"Pentax asahi camera met extra lens en tas. Productie vanaf 1976 in goede werkende staat. Verzenden vanaf 4,95  (6535)",https://images.marktplaats.com/api/v1/listing-mp-p/images/48/481d2e7a-2b25-479f-9b95-541561be94e3?rule=ecg_mp_eps$_82.jpg,https://link.marktplaats.nl/m2152427191,51.75691455294,4.6094282650435,65.0,Ophalen of Verzenden,30 aug 24,Ophalen of Verzenden,mart,False,
m2153626800,Asahi Pentax  lenzen camera gebruiksaanwijzing,Deze gebruiksaanwijzing heeft 30 bladzijden en het gewicht is 33 gram het boekje is in de engelse taal  doe een mooi bod ex verz o,https://images.marktplaats.com/api/v1/listing-mp-p/images/3c/3ce64953-aff3-464a-982a-a8a867e2d03f?rule=ecg_mp_eps$_82.jpg,https://link.marktplaats.nl/m2153626800,52.678292465632,4.8498024643326,0.0,Ophalen of Verzenden,2 sep 24,Ophalen of Verzenden,Henk,False,
m2165696115,Asahi Pentax Spotmatic F,"Zwarte spotmatic f.  Sluiter werkt, belichtingsmeter werkte toen de batterij nog niet leeg was. Px625 batterijvervanger te koop bi",https://images.marktplaats.com/api/v1/listing-mp-p/images/b8/b8c2add4-9586-44d0-8ffc-0932bbf626f3?rule=ecg_mp_eps$_82.jpg,https://link.marktplaats.nl/m2165696115,51.78829577722,4.5495328466129,100.0,Ophalen of Verzenden,27 sep 24,Ophalen of Verzenden,jaap h,False,
m2172503249,Pentax ASAHI Sportmatic Analoge fotocamera,Alleen ophalen,https://images.marktplaats.com/api/v1/listing-mp-p/images/dc/dcf7ccb6-9086-4b81-9414-247647704f12?rule=ecg_mp_eps$_82.jpg,https://link.marktplaats.nl/m2172503249,53.230921607217,6.5297900144432,45.0,Ophalen,6 okt 24,Ophalen,de vries,False,
m2149733570,Pentax asahi ME Tokina lens,Vintage pentax asahi me met tokina lens rmc tokina 35-100mm 1:3.5-4.3 55 8155149 Bieden.,https://images.marktplaats.com/api/v1/listing-mp-p/images/7d/7d475dc2-f4a6-43eb-ba74-5b1de2308c8c?rule=ecg_mp_eps$_82.jpg,https://link.marktplaats.nl/m2149733570,52.476922235585,4.8069110458989,0.0,Ophalen of Verzenden,22 aug 24,Ophalen of Verzenden,richard,False,
m2173871585,Asahi Pentax S1a in goede staat,Deze camera heb ik jarenlang gefotografeerd tot dat de digitel opmars kwam,https://images.marktplaats.com/api/v1/listing-mp-p/images/70/70938b05-d38e-47c5-b2e9-9e7cb5a4980e?rule=ecg_mp_eps$_82.jpg,https://link.marktplaats.nl/m2173871585,52.526405289161,5.7179067076025,0.0,Ophalen,8 okt 24,Ophalen,L VB,False,
m2158363248,Asahi Pentax K1000 met drie extra lenzen analoge,Asahi pentax k1000 camera lens 1: kenlock auto 2x teleconverter lens 2: kenlock 200mm f3.5 Auto lens lens 3: kenlock 300mm f5.5 Co,https://images.marktplaats.com/api/v1/listing-mp-p/images/18/183da44a-fe51-4247-acfe-9b172cd9b90e?rule=ecg_mp_eps$_82.jpg,https://link.marktplaats.nl/m2158363248,52.240739567372,6.8902184297169,300.0,Ophalen,15 sep 24,Ophalen,laura wissink,False,
m2163234947,Asahi Pentax SP 1000  Met SC Lens 1:2/55 camera,Deze camera werkt goed en ziet er netjes uit is samen met de originele tas doe een mooi bod ex verz of halen mvgr henk 16,https://images.marktplaats.com/api/v1/listing-mp-p/images/2f/2f524c23-c7c6-4fc9-8fa0-e55ad26b564f?rule=ecg_mp_eps$_82.jpg,https://link.marktplaats.nl/m2163234947,52.678292465632,4.8498024643326,0.0,Ophalen of Verzenden,24 sep 24,Ophalen of Verzenden,Henk,False,
m2143049217,Pentax Asahi ME analoge spiegelreflexcamera- topstaat,"Pentax asahi me analoge spiegelreflexcamera- topstaat werkt prima, lichtmeter ook lens is in zeer goede staat lens: smc pentax-m 1",https://images.marktplaats.com/api/v1/listing-mp-p/images/17/17a878e3-a67f-4226-ac72-f40b825ffd14?rule=ecg_mp_eps$_82.jpg,https://link.marktplaats.nl/m2143049217,52.649641242533,4.8309813364127,0.0,Ophalen of Verzenden,3 aug 24,Ophalen of Verzenden,MrIpHoNe,False,
m2172092359,Asahi Pentax SP II met 50 mm en 500 mm  !!,Set met 2 x pentax bodies ( sp ii ) en een 55 mm pentax en een 500 mm spiegellens . ( Van tokina uit japan ) met 42 mm pdraad vatt,https://images.marktplaats.com/api/v1/listing-mp-p/images/4f/4f4b79fc-b234-4f01-b111-12e5a527be32?rule=ecg_mp_eps$_82.jpg,https://link.marktplaats.nl/m2172092359,52.215932841615,6.8842938238082,0.0,Ophalen of Verzenden,5 okt 24,Ophalen of Verzenden,jacob,False,
m2136635196,Asahi PENTAX MV - compleet met koffer,"Zie foto's.  Een nette analoge camera pentax mv eerste eigenaar, gekocht in 1980. In prima staat maar wordt al lange tijd niet",https://images.marktplaats.com/api/v1/listing-mp-p/images/76/768247e9-c3b0-417c-8510-a76189891510?rule=ecg_mp_eps$_82.jpg,https://link.marktplaats.nl/m2136635196,52.847009403252,6.0993137676863,70.0,Ophalen,14 jul 24,Ophalen,Michiel,False,
m2146563084,Pentax Asahi spotmatic zwart 35mm,Klassieke spiegelreflexcamera van asahi pentax: de sp in de zeldzame zwarte uitvoering met selftimer! Prachtige zwarte uitvoering ,https://images.marktplaats.com/api/v1/listing-mp-p/images/9e/9eae5bf1-2cd2-4d3f-af59-1b3c46b5f41b?rule=ecg_mp_eps$_82.jpg,https://link.marktplaats.nl/m2146563084,51.469707506477,3.6064030863981,80.0,Ophalen of Verzenden,13 aug 24,Ophalen of Verzenden,Nayla,False,
m2168797883,Pentax camera 37005,"We krijgen het achterklepje niet open de camera is niet getest pantaxt-m 1,1,7 50 mm 6554190 asahi opt co japan verzenden is geen ",https://images.marktplaats.com/api/v1/listing-mp-p/images/ae/ae87cc96-1424-4c19-be17-421af191c6a4?rule=ecg_mp_eps$_82.jpg,https://link.marktplaats.nl/m2168797883,53.178869946976,6.6737660543595,75.0,Ophalen,1 okt 24,Ophalen,Tweedehands050,False,
m2162532109,Pentax asahi,Pentax hoekzoeker zgan,https://images.marktplaats.com/api/v1/listing-mp-p/images/fd/fd2a860e-14f9-4ab8-8e74-9060cd5fc521?rule=ecg_mp_eps$_82.jpg,https://link.marktplaats.nl/m2162532109,52.020664510433,4.7109018522276,50.0,Ophalen,23 sep 24,Ophalen,opruiming,False,
m2150918930,"Takumar 135 mm F 2,5 Asahi",Een deel van mijn geliefde verzameling mag naar een nieuwe liefhebber. Ook dezxe geweldige lens. Gereviceerd. Topconditie. Vraag g,https://images.marktplaats.com/api/v1/listing-mp-p/images/c3/c3a9b0bb-3607-4bc8-9b80-f7a80de86528?rule=ecg_mp_eps$_82.jpg,https://link.marktplaats.nl/m2150918930,52.060430736783,4.329103419758,0.0,Ophalen of Verzenden,25 aug 24,Ophalen of Verzenden,Edgar,False,
m2157644637,Asahi Pentax 67 + 1:2.4 105mm & 1:4.5 75mm Lenzen,Compleet werkende pentax 67 met de super beroemde en ongelooflijk scherpe 105mm. Plus nog een 75mm wide angle lens. Ik heb de came,https://images.marktplaats.com/api/v1/listing-mp-p/images/e5/e5245b60-b4c3-4ff8-a02a-3f87c61c513d?rule=ecg_mp_eps$_82.jpg,https://link.marktplaats.nl/m2157644637,50.870086639808,5.6693100003522,1500.0,Ophalen of Verzenden,13 sep 24,Ophalen of Verzenden,Mosableau,False,
m2139121208,Diverse analoge camera's,Te koop aangeboden diverse analoge camera's  - canon canonet 28 - defect (sluiter blijft hangen) - minolta prod-20's - ver,https://images.marktplaats.com/api/v1/listing-mp-p/images/50/50fe4629-e67f-4124-89bc-b495a74c9d41?rule=ecg_mp_eps$_82.jpg,https://link.marktplaats.nl/m2139121208,52.367380532181,4.8530426023742,0.0,Ophalen of Verzenden,22 jul 24,Ophalen of Verzenden,van Ek,False,
m2130992247,Pentax KX Asahi camera 24911,Mechaniek werkt goed breedte: 14 cm zithoogte: 8 cm verzenden is geen probleem en doen we met postnl de kosten hiervoor bedragen 6,https://images.marktplaats.com/api/v1/listing-mp-p/images/dd/ddc49a0d-5ea1-4c22-b91f-4b93a5f8401d?rule=ecg_mp_eps$_82.jpg,https://link.marktplaats.nl/m2130992247,53.178869946976,6.6737660543595,200.0,Ophalen of Verzenden,29 jun 24,Ophalen of Verzenden,Tweedehands050,False,
m2154356889,Pentax SP-F spiegelreflexcamera met Metz flitser,Asahi pentax spotmatic f spiegelreflexcamera. Camera voorzien van p-draad. Analoog. Met een metz 45-ct1 staafflitser. Flitser voor,https://images.marktplaats.com/api/v1/listing-mp-p/images/45/45adc48a-80a8-42e9-99b6-908c2d93afcb?rule=ecg_mp_eps$_82.jpg,https://link.marktplaats.nl/m2154356889,53.155534171016,6.6404003191105,0.0,Ophalen,4 sep 24,Ophalen,Regina,False,
m2157114848,Pentax K1000 35mm SLR met Pentax 50mm lens,Vintage asahi pentax met smc pentax-m 1:1.7 50Mm lens en lensdop. Alle functies zijn getest en werken naar behoren behalve de lich,https://images.marktplaats.com/api/v1/listing-mp-p/images/62/628dedfc-1135-4482-be85-35e2fa5bb499?rule=ecg_mp_eps$_82.jpg,https://link.marktplaats.nl/m2157114848,52.165690259939,4.5306988584286,125.0,Ophalen of Verzenden,11 sep 24,Ophalen of Verzenden,SV,False,
m2153348226,Pentax Asahi vintage,Complete set incl koffer origineel,https://images.marktplaats.com/api/v1/listing-mp-p/images/52/524c5d72-5685-4360-b234-edb5a52f1dfe?rule=ecg_mp_eps$_82.jpg,https://link.marktplaats.nl/m2153348226,51.737334310504,5.5237227112713,500.0,Ophalen of Verzenden,1 sep 24,Ophalen of Verzenden,Saskia,False,
m2171944963,Super Takumar 50mm F1.4 op vintage Spotmatic camera,Deze stijlvolle spotmatic van asahi pentax is een heerlijke vintage camera. Hij staat bekend om zijn gebruiksgemak en degelijke bo,https://images.marktplaats.com/api/v1/listing-mp-p/images/35/3548770c-c92f-4ed2-8e67-b8ef3c112e59?rule=ecg_mp_eps$_82.jpg,https://link.marktplaats.nl/m2171944963,52.403959196306,4.9204880081916,0.0,Ophalen of Verzenden,5 okt 24,Ophalen of Verzenden,J,False,
m2132128093,Asahi Pentax S1a met standaard 55 mm objectief en een 80-200,Kleinbeeld spiegelreflex camera met satndaard objectief en 80-200 zoom objectief.,https://images.marktplaats.com/api/v1/listing-mp-p/images/0d/0dc36451-36b1-4006-87d5-082b90440e6c?rule=ecg_mp_eps$_82.jpg,https://link.marktplaats.nl/m2132128093,51.993897799746,5.9744602118588,100.0,Ophalen,2 jul 24,Ophalen,F.W. Simon,False,
m2156361772,"Pentax Asahi SV, S1a, Super Takumar 135/2.5, 70mm f2.8 lens","De fotograaf verkoopt spullen of dunt zijn collectie uit. Pentax asahi sv, pentax asahi s1a, lens super multi coated takumar 135mm",https://images.marktplaats.com/api/v1/listing-mp-p/images/b5/b58a6f77-541d-49e6-8eb1-695c69a6e025?rule=ecg_mp_eps$_82.jpg,https://link.marktplaats.nl/m2156361772,52.073417094638,4.3046471306691,0.0,Ophalen of Verzenden,9 sep 24,Ophalen of Verzenden,DH,False,
m2170721295,Pentax PC-303 point and shoot camera,Te koop pentax pc-303 point and shoot camera camera werkt prima de pentax pc-303 is een lichte plastic 35 mm compacte point-and-sh,https://images.marktplaats.com/api/v1/listing-mp-p/images/f4/f4d574cf-8ca7-473f-b06e-27e08ba0d7e4?rule=ecg_mp_eps$_82.jpg,https://link.marktplaats.nl/m2170721295,51.895021554984,4.5656448193976,25.0,Ophalen of Verzenden,4 okt 24,Ophalen of Verzenden,cornelis,False,
m2158065748,Pentax Asahi 35mm camera - D.D.R lens 4/200,Pentax asahi 35mm camera - d.d.r lens 4/200,https://images.marktplaats.com/api/v1/listing-mp-p/images/47/476c891e-457b-4987-b23c-f4cbbd2c3f04?rule=ecg_mp_eps$_82.jpg,https://link.marktplaats.nl/m2158065748,53.192456505924,6.5576752701827,0.0,Ophalen of Verzenden,14 sep 24,Ophalen of Verzenden,TDV,False,
m2140637719,Asahi pentax spotmatic auto revuenon 50 1;1.9 Japan,Asahi pentax spotmatic auto revuenon 50 1;1.9 Japan gebruiksaanwijzing aanwezig. Analoog fotograveren is prachtig. Meer diepte mee,https://images.marktplaats.com/api/v1/listing-mp-p/images/b7/b75ab54c-aa98-434b-b32c-527534726469?rule=ecg_mp_eps$_82.jpg,https://link.marktplaats.nl/m2140637719,51.64495077393,4.592488100514,300.0,Verzenden,27 jul 24,Verzenden,Thea,False,
m2135292137,PENTAX asahi SP1000 Fotocamera body + Lens SMC TAKUMAR,Pentax asahi sp1000 fotocamera body + lens en tas + band,https://images.marktplaats.com/api/v1/listing-mp-p/images/78/78fff9c0-0410-4999-8994-6e4e0e20909c?rule=ecg_mp_eps$_82.jpg,https://link.marktplaats.nl/m2135292137,51.530852410943,4.435120080705,100.0,Verzenden,10 jul 24,Verzenden,Richardk,False,
m2159660082,Foto telelens+flitser+alu .koffer met lens en selftimer,"Foto telelens+flitser+alu .koffer met lens en selftimer hakura alu kamera koffer € 69,00  asahi pentax p1000 handleiding &eur",https://images.marktplaats.com/api/v1/listing-mp-p/images/66/66e5b8fa-e58c-4fb2-ac72-6a1405295061?rule=ecg_mp_eps$_82.jpg,https://link.marktplaats.nl/m2159660082,51.795175282781,5.825684297107,0.0,Ophalen of Verzenden,18 sep 24,Ophalen of Verzenden,Ellen,False,
m2133557286,Asahi Pentax MV – spiegelreflex camerabody  – vintage,"Camerabody van 35mm éénogige spiegelreflexcamera, merk asahi pentax mv, met automatische belichtingsregeling bij open diafragma, a",https://images.marktplaats.com/api/v1/listing-mp-p/images/37/37518a17-0896-43c6-89e2-4ed46f0d139c?rule=ecg_mp_eps$_82.jpg,https://link.marktplaats.nl/m2133557286,51.913417118958,4.5850197965015,0.0,Ophalen of Verzenden,5 jul 24,Ophalen of Verzenden,Vitellus,False,
m2131228196,Asahi Pentax Type Program A inclusief draagtas & accessoires,"Asahi pentax type program a inclusief draagriem, draagtas en volgende accessoires: werking onbekend. Lenzen: sigma mini-wide ii 1:",https://images.marktplaats.com/api/v1/listing-mp-p/images/dc/dc52183f-8a7a-4b62-aaf6-d2194b942de1?rule=ecg_mp_eps$_82.jpg,https://link.marktplaats.nl/m2131228196,52.053768577259,4.2370097128578,200.0,Ophalen of Verzenden,29 jun 24,Ophalen of Verzenden,We ruimen op! Wees er snel bij,False,
m2137616513,Asahi Pentax SP 1000 camera,Dit toestel werkt goed en ziet er netjes uit de lens is een smc takumar 1:2/55 asahi opt co japan doe een mooi bod ex verz of hale,https://images.marktplaats.com/api/v1/listing-mp-p/images/eb/eb3d9494-2828-439e-9c39-195f82878ae0?rule=ecg_mp_eps$_82.jpg,https://link.marktplaats.nl/m2137616513,52.678292465632,4.8498024643326,0.0,Ophalen of Verzenden,17 jul 24,Ophalen of Verzenden,Henk,False,
m2141026372,Vintage fotocamera set; pentax zenit-E,Set bestaande uit: zenit-e moshva 80 - lens pallas 49mm - lens pallas 1:2.8 - Tas zenit 3ehnt asahi pentax sp500 - lens super-taku,https://images.marktplaats.com/api/v1/listing-mp-p/images/d7/d7e8be64-739d-41b8-bc0b-756db81ec718?rule=ecg_mp_eps$_82.jpg,https://link.marktplaats.nl/m2141026372,51.523662483061,5.4738465853443,150.0,Ophalen of Verzenden,31 jul 24,Ophalen of Verzenden,Sander Scheepers,False,
m2163003487,Analoge photography gear bundle,Big lot of analog camera's asahi pentax sv - reserved pentax mx - sold vivitar xv-1 - reserved praktica l - reserved last 2 pi,https://images.marktplaats.com/api/v1/listing-mp-p/images/9d/9dafbcb6-dab7-4739-9697-f8d609d259d2?rule=ecg_mp_eps$_82.jpg,https://link.marktplaats.nl/m2163003487,51.913059430737,4.3923145264099,0.0,Ophalen of Verzenden,23 sep 24,Ophalen of Verzenden,Denis,False,
m2146271141,Pentax SV inclusief pentax lichtmeter en lens,Pentax sv analoge spiegelreflexcamera body inclusief: asahi pentax lichtmeter pentacon auto 1:2.8 28Mm lens uv filter camera werkt,https://images.marktplaats.com/api/v1/listing-mp-p/images/7a/7a836c18-a2af-4d59-b878-73afd84a1d9f?rule=ecg_mp_eps$_82.jpg,https://link.marktplaats.nl/m2146271141,52.032047905193,6.0833059907176,70.0,Ophalen of Verzenden,12 aug 24,Ophalen of Verzenden,Dejavu,False,
m2154674893,Pentax asahi fotocamera,"Pentax asahi fotocamera, spotmatic",https://images.marktplaats.com/api/v1/listing-mp-p/images/b8/b80eb9a2-2d0f-4725-a2aa-c9f0f5a49418?rule=ecg_mp_eps$_82.jpg,https://link.marktplaats.nl/m2154674893,52.367168184091,4.5417942929687,0.0,Ophalen,5 sep 24,Ophalen,Jamlin,False,
m2140176243,COMPACTCAMERA PENTAX-ANALOOG -  VOOR ROLFILM 35 MM,Nostalgische compactcamera - analoog  voor gebruik van rolfilmpjes 35 mm fabrikaat:  asahi pentax espio 90 mc -   helemaal weer po,https://images.marktplaats.com/api/v1/listing-mp-p/images/f4/f403c7a8-7b2b-4d52-bf67-a60ca0cbec9d?rule=ecg_mp_eps$_82.jpg,https://link.marktplaats.nl/m2140176243,52.663204938571,6.7406160540192,98.0,Ophalen of Verzenden,14 okt 24,Ophalen of Verzenden,emwee,False,
m2177177379,Asahi Pentax ES analoog fototoestel is misschien goede staat,"Asahi pentax es analoog fototoestel is misschien goede staat, want veel verstand heb ik er niet van. Het lijkt me een oud model, h",https://images.marktplaats.com/api/v1/listing-mp-p/images/d7/d70ba425-860f-4cf3-a410-0a320f3c4633?rule=ecg_mp_eps$_82.jpg,https://link.marktplaats.nl/m2177177379,52.09395017242,5.2447214791159,0.0,Ophalen of Verzenden,13 okt 24,Ophalen of Verzenden,Rimbert,False,
m2173916697,Pentax asahi SV 55 mm,Sluiter klinkt goed verdere werking onbekend verzendkosten zijn voor de koper en verzenden is op eigen risico,https://images.marktplaats.com/api/v1/listing-mp-p/images/d3/d3ca447e-98d7-4c2b-8a82-bf4b6bd2cf93?rule=ecg_mp_eps$_82.jpg,https://link.marktplaats.nl/m2173916697,52.378442733327,4.6152424669834,0.0,Ophalen of Verzenden,8 okt 24,Ophalen of Verzenden,Liza,False,
m2177782723,Kowa Set (defect),Cosmetisch perfecte staat. Alsof hij nieuw van de winkel komt. Helaas werkt hij niet meer goed. De camera maakt een foto zonder op,https://images.marktplaats.com/api/v1/listing-mp-p/images/1c/1c4c322a-376a-414b-9a1d-a1894f133362?rule=ecg_mp_eps$_82.jpg,https://link.marktplaats.nl/m2177782723,52.687042320607,6.1755179902313,0.0,Ophalen of Verzenden,13 okt 24,Ophalen of Verzenden,bastian,False,
m2180472493,311 - Gebruiksaanwijzing KOWA 35N Kleinbeeldcamera,Ik heb voor de verzamelaar/liefhebber te koop: een gebruiksaanwijzing voor de kowa 35n kleinbeelcamera. Het pagina formaat van het,https://images.marktplaats.com/api/v1/listing-mp-p/images/a8/a81d4ef1-ef70-46c1-9529-61c9f4501a38?rule=ecg_mp_eps$_82.jpg,https://link.marktplaats.nl/m2180472493,52.217915995054,5.9999915238321,9.95,Verzenden,Vandaag,Verzenden,Verkoop mijn verzameling,False,
m2177802515,Partij analoge camera's,Mooie partij analoge camera's. Alle camera's werken behalve de kowa set en de haking mini af. Voor meer foto's of info,https://images.marktplaats.com/api/v1/listing-mp-p/images/b1/b1e70bb1-3e90-4c9f-bbcc-9922c69fe238?rule=ecg_mp_eps$_82.jpg,https://link.marktplaats.nl/m2177802515,52.687042320607,6.1755179902313,0.0,Ophalen of Verzenden,13 okt 24,Ophalen of Verzenden,bastian,False,
m2157835739,KOWA zonnekap 60mm,Kowa zonnekap  vierkant model aansluiting 60mm op klem als nieuw in foudraal,https://images.marktplaats.com/api/v1/listing-mp-p/images/94/94e65a69-28f1-4bf5-bb87-9b2f02212bcc?rule=ecg_mp_eps$_82.jpg,https://link.marktplaats.nl/m2157835739,51.928959241742,4.5022043793845,25.0,Ophalen of Verzenden,13 sep 24,Ophalen of Verzenden,Hoh,False,
m2154573919,analoge camera spiegelreflex,Kowa spiegelreflex camera  analoog doe een bod excl. Verzendkosten,https://images.marktplaats.com/api/v1/listing-mp-p/images/a4/a435a42b-ad6b-4b7a-945c-f77886174809?rule=ecg_mp_eps$_82.jpg,https://link.marktplaats.nl/m2154573919,51.828645684952,5.9294810059891,0.0,Ophalen of Verzenden,4 sep 24,Ophalen of Verzenden,Gerard,False,
m2146705712,Olympus OM 1n zwart,Olympus om1n zwart 50mm 1.4 Lens orginele cameratas toebehoren: zuiko 100mm 2.8 Nieuwstaat                        sigma mini-wide ,https://images.marktplaats.com/api/v1/listing-mp-p/images/9e/9e852d3b-eeda-471b-a6ac-39d845e61940?rule=ecg_mp_eps$_82.jpg,https://link.marktplaats.nl/m2146705712,50.893231766293,6.0559100562695,0.0,Ophalen,10 sep 24,Ophalen,Bert Ouwerkerk,False,
m2163726199,"Kowa SE 50mm camera, werkend!",Mooi werkend! 1:1.9 50Mm kowa lens.,https://images.marktplaats.com/api/v1/listing-mp-p/images/47/47de5300-8d79-4e7c-b2d4-4d25535fe0d1?rule=ecg_mp_eps$_82.jpg,https://link.marktplaats.nl/m2163726199,52.045832891261,5.0803584072786,35.0,Ophalen of Verzenden,24 sep 24,Ophalen of Verzenden,hout,False,
m2157836289,KOWA zonnekap Kowaflex,Kowa zonnekap kowaflex aansluiting 51mm op klem als nieuw in foudraal,https://images.marktplaats.com/api/v1/listing-mp-p/images/80/8010f2c6-b54f-4eae-892d-ac407b44ddc5?rule=ecg_mp_eps$_82.jpg,https://link.marktplaats.nl/m2157836289,51.928959241742,4.5022043793845,20.0,Ophalen of Verzenden,13 sep 24,Ophalen of Verzenden,Hoh,False,
m2156909754,KOWA H camera met KOWA lens 48mm,"Kowa h camera met kowa lens 48mm zie ook mijn andere advertenties voor meer mooie spulletjes .verzenden via postnl voor 5,95 euro ",https://images.marktplaats.com/api/v1/listing-mp-p/images/a1/a1307b79-211b-47fd-9c2f-377568342719?rule=ecg_mp_eps$_82.jpg,https://link.marktplaats.nl/m2156909754,53.077454635527,6.692764623415,20.0,Ophalen of Verzenden,11 sep 24,Ophalen of Verzenden,de kreupele kat,False,
m2134315750,Ashi Pentax S1A zwart + Super Takumar 55mm f2 + lederen hoes,"Zeer nette en volledig werkende camera. Komt met case + 55mm f2 lens 120,- vaste prijs andere biedingen heeft geen zin alleen verz",https://images.marktplaats.com/api/v1/listing-mp-p/images/00/00f7da9e-9899-4866-85d7-6c9e6ee72d4c?rule=ecg_mp_eps$_82.jpg,https://link.marktplaats.nl/m2134315750,52.123574786402,6.2265534326538,120.0,Ophalen of Verzenden,8 jul 24,Ophalen of Verzenden,Fotografie and More,False,
m2177807079,Pentax Spotmatic F + SMC Takumar 55mm,Pentax spotmatic f + smc takumar 55mm optisch in behoorlijke conditie. Heeft een deuk. Mechanisch werkt hij goed. Lichtmeter geeft,https://images.marktplaats.com/api/v1/listing-mp-p/images/37/37ca2dbd-f4d1-4a1a-b17e-b3d1ca1d9bed?rule=ecg_mp_eps$_82.jpg,https://link.marktplaats.nl/m2177807079,52.411780226335,4.8899967199083,45.0,Ophalen of Verzenden,13 okt 24,Ophalen of Verzenden,Kees,False,
m2137591904,PENTAX s1a met belichtingsmeter,Asashi pentax,https://images.marktplaats.com/api/v1/listing-mp-p/images/86/86eb2656-e260-4e92-95d4-5fd1ac8d5bf5?rule=ecg_mp_eps$_82.jpg,https://link.marktplaats.nl/m2137591904,51.529090810604,5.0761569242014,0.0,Ophalen,20 jul 24,Ophalen,Kemmelings,False,
m2123238536,"Pentax spotmatic sp1000 takumar 28, 50, 55, 135 and 2x 200mm","Selling a set with a pentax spotmatic sp 1000 and a few lenses. Body: black, in really good condition. Some marks of use, nothing ",https://images.marktplaats.com/api/v1/listing-mp-p/images/e2/e2debdec-c2e7-40ca-958c-ad4332b6fb75?rule=ecg_mp_eps$_82.jpg,https://link.marktplaats.nl/m2123238536,52.087812700251,4.7502903960656,550.0,Ophalen of Verzenden,5 jun 24,Ophalen of Verzenden,Álefe Matos,False,
m2176763349,Pentax spotmatic F,Pentax spotmatic f,https://images.marktplaats.com/api/v1/listing-mp-p/images/ae/aef1b105-4915-4602-8d51-7172916319a5?rule=ecg_mp_eps$_82.jpg,https://link.marktplaats.nl/m2176763349,52.71196258377,6.4775337609547,0.0,Ophalen of Verzenden,12 okt 24,Ophalen of Verzenden,mm,False,
m2165672513,Fotocamera Pantax Spotmatic,Fotocamera pantax spotmatic,https://images.marktplaats.com/api/v1/listing-mp-p/images/b5/b5cf1f55-63bd-4301-bc6f-163c4ec6b250?rule=ecg_mp_eps$_82.jpg,https://link.marktplaats.nl/m2165672513,52.496118912376,4.8087258083914,40.0,Ophalen of Verzenden,27 sep 24,Ophalen of Verzenden,moon,False,
m2155824167,Petri FA-1 - Petri EE Auto 55mm f1.7,Een deel van mijn geliefde verzameling mag naar een nieuwe liefhebber. Camera werkend. Belichtingsmeter werkend. Sluiter en film d,https://images.marktplaats.com/api/v1/listing-mp-p/images/48/48d970de-0fc7-4233-81a9-26fb1d0a8377?rule=ecg_mp_eps$_82.jpg,https://link.marktplaats.nl/m2155824167,52.060430736783,4.329103419758,0.0,Ophalen of Verzenden,8 sep 24,Ophalen of Verzenden,Edgar,False,
m2180523967,Pentax SP 1000 - lens Takumar 55mm f2,"Aangeboden, een pentax sp1000 - takumar 55mm f2. Op gehoor zijn de sluitertijden nauwkeurig. Body heeft gebruikssporen en de lens ",https://images.marktplaats.com/api/v1/listing-mp-p/images/89/890b4dea-e698-43e1-b9ff-87a9b282e00f?rule=ecg_mp_eps$_82.jpg,https://link.marktplaats.nl/m2180523967,52.382541864066,4.6368959806565,0.0,Ophalen of Verzenden,Vandaag,Ophalen of Verzenden,Dean,False,
m2142691944,pentax ME (optioneel met Petri 35mm lens),Pentax me (optioneel met petri 35mm lens),https://images.marktplaats.com/api/v1/listing-mp-p/images/34/34ce68aa-d334-41d0-aedf-c1a84a4f7f44?rule=ecg_mp_eps$_82.jpg,https://link.marktplaats.nl/m2142691944,51.506143963076,5.7514875175815,0.0,Ophalen of Verzenden,2 aug 24,Ophalen of Verzenden,S.,False,
m2175485085,Pentacon Six TL - Pentax Spotmatic F - Fujifilm,"Ik verkoop enkele camera's , objectieven en filmrollen om mijn collectie uit te dunnen. Alles functioneert naar behoren. Objec",https://images.marktplaats.com/api/v1/listing-mp-p/images/72/72ec37e8-cae3-426c-a177-5dcfd0f14c1f?rule=ecg_mp_eps$_82.jpg,https://link.marktplaats.nl/m2175485085,51.848222499183,5.8609801371872,0.0,Ophalen of Verzenden,10 okt 24,Ophalen of Verzenden,JMB,False,
m2149945810,"Pentax K1000, Praktica en lenzen en flitsers",Doe een leuk serieus bod,https://images.marktplaats.com/api/v1/listing-mp-p/images/49/49d62240-691e-4241-b070-542dc749fa0d?rule=ecg_mp_eps$_82.jpg,https://link.marktplaats.nl/m2149945810,52.495029699909,4.9710591456483,0.0,Ophalen of Verzenden,26 aug 24,Ophalen of Verzenden,R.Navis,False,
m2162929575,Pentax spotmatic,Pentax spotmatic ik verkoop dit omdat ik er geen verstand van heb gevonden bij me opa op de zolder,https://images.marktplaats.com/api/v1/listing-mp-p/images/db/dbdd572b-69f6-44e4-83e6-45f907ae9017?rule=ecg_mp_eps$_82.jpg,https://link.marktplaats.nl/m2162929575,51.580236618841,4.3178249347359,0.0,Ophalen,23 sep 24,Ophalen,jg,False,
m2143973263,Pentax Spotmatic SP,"Nog prima functionerende prachtige zwarte spotmatic, zestiger jaren, vintage, voorzien van nieuwe batterij en functionerende licht",https://images.marktplaats.com/api/v1/listing-mp-p/images/3e/3e566e05-9ab6-47c4-9d3e-a3e1ff85d61c?rule=ecg_mp_eps$_82.jpg,https://link.marktplaats.nl/m2143973263,51.991801547235,5.8363451993102,0.0,Ophalen of Verzenden,5 aug 24,Ophalen of Verzenden,Ardri,False,
m2156519510,Pentax ME Film Camera & Pentax-M 50mm f1.7 Lens - needs fix,I got this in a bundle a while ago and had good intentions for it but i no longer have the means to. The camera seems to be in a w,https://images.marktplaats.com/api/v1/listing-mp-p/images/54/548f7e0e-eef9-4989-ac4c-5494890fd718?rule=ecg_mp_eps$_82.jpg,https://link.marktplaats.nl/m2156519510,53.185903347423,5.807698481502,0.0,Ophalen of Verzenden,10 sep 24,Ophalen of Verzenden,L.Koster,False,
m2139433624,Pentax spotmatic sp2 met Görlitz osteron 50mm 1.8,Pentax sp2 met meyer görlitz lens. Camera is in werkende staat tijden zijn oké zoeker is een beetje stoffig meter is niet getest.l,https://images.marktplaats.com/api/v1/listing-mp-p/images/04/040529dc-7fc3-4a32-beca-a51d9f447701?rule=ecg_mp_eps$_82.jpg,https://link.marktplaats.nl/m2139433624,52.634521105311,4.7366364856644,0.0,Ophalen,23 jul 24,Ophalen,Abulafia,False,
m2180652367,mamiya cwp analoge camera,"Mamiya cwp analoge camera met mamiya f 50mm, 1:2 lens. Ik verkoop deze camera omdat hij niet meer gebruikt wordt.",https://images.marktplaats.com/api/v1/listing-mp-p/images/86/86836e26-d34f-4084-8ab0-acc22e08a5fc?rule=ecg_mp_eps$_82.jpg,https://link.marktplaats.nl/m2180652367,52.03584924003,4.2799550664313,0.0,Ophalen of Verzenden,Vandaag,Ophalen of Verzenden,Petervdn,False,
m2180971325,Mamiya C330 met Mamiya-Sekor F135mm 1:4.5,"Middenformaat analoge camera van mamiya voor de liefhebber. De camera komt niet met standaard lens maar met de 135mm, perfect voor",https://images.marktplaats.com/api/v1/listing-mp-p/images/6c/6c59da10-5e7a-4222-bc64-12a4eb12a66f?rule=ecg_mp_eps$_82.jpg,https://link.marktplaats.nl/m2180971325,52.390564485586,4.8741046428462,275.0,Ophalen of Verzenden,Vandaag,Ophalen of Verzenden,FotoFanatiek,False,
m2178199275,Mamiya RB67,Camera in working condition. Selling because have another camera.,https://images.marktplaats.com/api/v1/listing-mp-p/images/9b/9b0f0445-4d8e-4fca-8f84-ea1c08fe8ca9?rule=ecg_mp_eps$_82.jpg,https://link.marktplaats.nl/m2178199275,52.385465841726,4.8519631333795,600.0,Ophalen,14 okt 24,Ophalen,Anna,False,
a1504298770,NIEUW: Breng film analoog oude cameras. Direct uitbetaald.,Analogue zoekt tweedehands camera's! Bij analogue zijn we gespecialiseerd in de inkoop van hoogwaardige tweedehands fotoappara,https://mp.images.icas.io/api/v1/a6519ad0/images/2c/2ccd3974-8017-492d-9109-deb14f7bbbae?rule=eps_82.JPG,https://link.marktplaats.nl/a1504298770,52.371463775634766,4.903913974761963,0.0,,14 okt 24,Gebruikt,Analogue Amsterdam,False,
m2178429957,Mamiya NC1000S met Mamiya - Sekor CS 1.7/50 ongecontroleerd,Totaal ongecontroleerde camera/lens combi voor de mamiya liefhebber. Enige controle (geen batterijen voorhanden) is dat de camera ,https://images.marktplaats.com/api/v1/listing-mp-p/images/1c/1c0ab0cc-77b6-41fe-a185-238c9720ccd6?rule=ecg_mp_eps$_82.jpg,https://link.marktplaats.nl/m2178429957,50.971321178746,5.976863775125,0.0,Ophalen of Verzenden,14 okt 24,Ophalen of Verzenden,wil,False,
m2170144745,Mamiya RB67,Ik heb de camera in april bij fotohandel delfshaven gekocht. De camera is daar helemaal nagelopen. Light seals zijn vervangen. Opm,https://images.marktplaats.com/api/v1/listing-mp-p/images/33/331c8a98-d494-48aa-bd29-d00f4e48440e?rule=ecg_mp_eps$_82.jpg,https://link.marktplaats.nl/m2170144745,52.129484485211,5.1934699502817,740.0,Ophalen of Verzenden,3 okt 24,Ophalen of Verzenden,tweedehandsboeken,False,
m2154412457,Mamiya 645 inclusief vele extra's,"Nette camera, geen lekkende batterijen. Let op! Het is een duur producten, dit verzenden wij niet. Lensen: mamiya sekor c 80mm f/2",https://images.marktplaats.com/api/v1/listing-mp-p/images/4d/4dc6f1c2-b79a-446a-a857-60b22bb90d49?rule=ecg_mp_eps$_82.jpg,https://link.marktplaats.nl/m2154412457,52.985024251961,6.298498218273,0.0,Ophalen,4 sep 24,Ophalen,M.,False,
m2174655973,Mamiya 35 analoge rangefinder camera,Leuke rangefinder uit eind jaren ‘70. Fijn compact en met de door kenners veelgeprezen mamiya optiek. Bijzonder brandpunt van 38 m,https://images.marktplaats.com/api/v1/listing-mp-p/images/f2/f207ec88-29cb-46f4-b6d8-4d88b678afaf?rule=ecg_mp_eps$_82.jpg,https://link.marktplaats.nl/m2174655973,52.097050672017,6.6488916672614,40.0,Ophalen of Verzenden,9 okt 24,Ophalen of Verzenden,Lars Wormgoor,False,
m2164137889,"Mamiya ZE compleet met winder, lenzen, flash",Complete set bestaande uit: mamiya ze 35mm film slr camera mamiya ze winder mamiya-sekor ef 35mm lens mamiya-sekor e 50mm lens mam,https://images.marktplaats.com/api/v1/listing-mp-p/images/83/8336cf80-b1a8-4286-955c-c39c394af8ed?rule=ecg_mp_eps$_82.jpg,https://link.marktplaats.nl/m2164137889,52.216240881544,5.1629259011947,0.0,Ophalen of Verzenden,25 sep 24,Ophalen of Verzenden,JocL,False,
m2152130978,MAMIYA RZ67 + SEKOR Z 180MM F4.5,Hierbij verkoop ik mijn mooie mamiya rz67 met sekor z 180 mm f4.5 Lens. Ik heb de camera een paar jaar geleden gekocht en gebruik ,https://images.marktplaats.com/api/v1/listing-mp-p/images/2d/2d63dba7-dfbb-4f07-9e4a-cf9286b109b5?rule=ecg_mp_eps$_82.jpg,https://link.marktplaats.nl/m2152130978,52.353251442667,4.8566582295884,650.0,Ophalen,Eergisteren,Ophalen,Lucas,False,
m2166356971,voigtlander eumig yashica flectalux kodak Bayer mamiya agf,Verschillende vintage fotocamera's en filmcamera's. Ook flitsers en 2 doosjes met lege dia's. Alles in 1 koop. Zie fot,https://images.marktplaats.com/api/v1/listing-mp-p/images/a4/a43cc470-8f68-4a6c-9be8-9bb36778b828?rule=ecg_mp_eps$_82.jpg,https://link.marktplaats.nl/m2166356971,52.714212044699,4.8529208757884,0.0,Ophalen of Verzenden,28 sep 24,Ophalen of Verzenden,Dekker,False,
m2159114211,Mamiya C3 Professional TLR camera + Mamiya-Sekor 80mm lens,Mamiya c3 professional tlr camera mamiya-sekor 80mm 1:2.8 Lens / objectief  inclusief: draagriem (niet origineel) draadontspanner ,https://images.marktplaats.com/api/v1/listing-mp-p/images/c5/c57d5745-1335-450e-8153-8c5bfa264ba4?rule=ecg_mp_eps$_82.jpg,https://link.marktplaats.nl/m2159114211,52.659045384536,5.0498450835668,389.0,Ophalen of Verzenden,17 sep 24,Ophalen of Verzenden,van der Ven,False,
m2175132843,Mamiya ZE Quartz,Mamiya ze quartz,https://images.marktplaats.com/api/v1/listing-mp-p/images/dc/dc66b16b-60b2-401d-8948-dac24bcc6446?rule=ecg_mp_eps$_82.jpg,https://link.marktplaats.nl/m2175132843,51.97510286643,6.7163938905829,60.0,Ophalen of Verzenden,10 okt 24,Ophalen of Verzenden,RM,False,
m2161979897,Mamiya 645-1000s met Sekor 80mm f2.8,Aangeboden een mooie mamiya 645-1000s.  Verkoop deze omdat ik hem echt te weinig gebruik.  Set verkeert in zeer nette en werkende ,https://images.marktplaats.com/api/v1/listing-mp-p/images/b1/b1e87e8b-3428-467f-a063-1d9b145110b7?rule=ecg_mp_eps$_82.jpg,https://link.marktplaats.nl/m2161979897,52.108827245689,5.17435816514,499.0,Ophalen of Verzenden,22 sep 24,Ophalen of Verzenden,Ben,False,
m2177570779,"Spiegelreflex camera Mamiya, blits, telelens en accessoires",1)foto's 3-8 analoge spiegelreflex camera mamiya/sekor 500 tl 1:2.8 F=50mm. Met een universele m42 schroefbevestiging en handl,https://images.marktplaats.com/api/v1/listing-mp-p/images/8c/8c6904f1-4a02-46f0-9160-de6c8c1760a6?rule=ecg_mp_eps$_82.jpg,https://link.marktplaats.nl/m2177570779,51.619949360149,4.8567671325385,0.0,Ophalen of Verzenden,13 okt 24,Ophalen of Verzenden,Annie,False,
m2176303319,Mamiya 7 met 65 mm objectief,Mamiya 7 met het juiste objectief voor deze camera. Afgesteld en goede staat.,https://images.marktplaats.com/api/v1/listing-mp-p/images/7b/7bef87ba-1291-4bfa-816d-9405cd8d2d79?rule=ecg_mp_eps$_82.jpg,https://link.marktplaats.nl/m2176303319,52.371575298382,4.8601982069621,0.0,Ophalen of Verzenden,11 okt 24,Ophalen of Verzenden,Bouwmeester,False,
m2162732729,Mamiya C3 professional met toebehoren,Mamiya c3 professional tlr camera met mamiya-sekor 80mm 1:2.8 Lens / objectief en een 135mm lens  inclusief: -aluminium koffer met,https://images.marktplaats.com/api/v1/listing-mp-p/images/d5/d5e6b2ea-01bc-4f61-b1b3-d477e1e7d01c?rule=ecg_mp_eps$_82.jpg,https://link.marktplaats.nl/m2162732729,51.111249744319,5.8545708101382,375.0,Ophalen of Verzenden,25 sep 24,Ophalen of Verzenden,Salvaged By Max,False,
m2179697843,Mamiya RZ67,Wegens overstap naar digitaal aangeboden: mamiya rz67 met de prachtige mamiya sekor 100mm f2.8) En de mamiya sekor 180mm f4.5. Ook,https://images.marktplaats.com/api/v1/listing-mp-p/images/97/97d2dda7-fbb6-4c79-95e6-523327193a1b?rule=ecg_mp_eps$_82.jpg,https://link.marktplaats.nl/m2179697843,52.366403121923,4.8840157474416,1000.0,Ophalen,Gisteren,Ophalen,Ruben,False,
m2180575209,"Mamiya 645 met 45mm 2.8, 80mm 2.8, 150mm 4 en prism finder","Met pijn in het hart te koop: mamiya m645 met 45mm f2.8, 80Mm f2.8, 150Mm f4 en gemeterde prism finder (licht meter werkt perfect,",https://images.marktplaats.com/api/v1/listing-mp-p/images/70/7028d14a-3940-4bcb-8623-bdd30458d8d1?rule=ecg_mp_eps$_82.jpg,https://link.marktplaats.nl/m2180575209,51.915957384555,4.3929779770429,700.0,Ophalen of Verzenden,Vandaag,Ophalen of Verzenden,Guido,False,
m2177592625,Mamiya 645 prism finder,Optisch in near mint staat maar de lichtmeter is niet betrouwbaar.,https://images.marktplaats.com/api/v1/listing-mp-p/images/45/454ca184-7797-4adb-ad58-745f95df4b99?rule=ecg_mp_eps$_82.jpg,https://link.marktplaats.nl/m2177592625,52.411780226335,4.8899967199083,120.0,Ophalen of Verzenden,13 okt 24,Ophalen of Verzenden,Kees,False,
m2158745548,Mamiya 645 Analoog Camera,Merk: mamiya 645 analoog camera. Met losse handgreep. Met gebruiksaanwijzing. Jaar: 1975 tot 1987. Met koffer.,https://images.marktplaats.com/api/v1/listing-mp-p/images/61/610e50b9-695c-453f-92c2-2e8767b95f70?rule=ecg_mp_eps$_82.jpg,https://link.marktplaats.nl/m2158745548,52.009346343616,4.6949291726368,475.0,Ophalen of Verzenden,16 sep 24,Ophalen of Verzenden,Peter's Rommelhoekje,False,
m2168469539,Mamiya 645,Wegens het aanschaffen van een andere camera is deze overbodig geworden.,https://images.marktplaats.com/api/v1/listing-mp-p/images/01/01766155-57aa-4e4a-bae9-460cb3b24b42?rule=ecg_mp_eps$_82.jpg,https://link.marktplaats.nl/m2168469539,53.232072340065,6.5704877906586,350.0,Ophalen of Verzenden,1 okt 24,Ophalen of Verzenden,NRundervoort,False,
m2170745345,Mamiya 500 DTL in zeer goede staat zie de duidelijke Foto's,In zeer goede staat verkerende mamiya 500 dtl zie de duidelijke foto's prijs bieden!! Graag geen mailtjes met wat moet hij kos,https://images.marktplaats.com/api/v1/listing-mp-p/images/01/0164c4f2-39a2-483e-9690-03e2c2c12c9c?rule=ecg_mp_eps$_82.jpg,https://link.marktplaats.nl/m2170745345,51.872667752568,4.155976362015,0.0,Ophalen of Verzenden,4 okt 24,Ophalen of Verzenden,martin,False,
m2167658009,Mamiya c330 met 80mm en zonnekap,Alles werkend weggelegd x aantal jaar geleden. Met een pak npz 800 om te testen (houdbaarheid 2007 dus dat moet iets moois oplever,https://images.marktplaats.com/api/v1/listing-mp-p/images/bc/bc29d35c-6130-4e7b-9a91-4c36708d9518?rule=ecg_mp_eps$_82.jpg,https://link.marktplaats.nl/m2167658009,52.458128001862,4.8103502703109,0.0,Ophalen of Verzenden,30 sep 24,Ophalen of Verzenden,Arton,False,
m2159988397,Mamiya RB67 + 90mm 3.8 + 2 backs in alu koffer,Deze zeer nette camera gebruik ik te weinig om het bezit te rechtvaardigen dus wil ik er iemand anders blij mee maken. Alles werkt,https://images.marktplaats.com/api/v1/listing-mp-p/images/ae/aea7237a-3052-4e2d-97ea-906705f5e0b7?rule=ecg_mp_eps$_82.jpg,https://link.marktplaats.nl/m2159988397,52.404451214133,4.6520255518722,500.0,Verzenden,19 sep 24,Verzenden,AT023,False,
m2177203449,Mamiya ZM analoge kleinbeeld spiegelreflex camera met lensen,"Werkende camera met goede lightseals. Lensen 50 mm, 35 mm, 28 mm en 135 mm.",https://images.marktplaats.com/api/v1/listing-mp-p/images/22/226e703a-54a3-41da-ac3c-fdf87b532323?rule=ecg_mp_eps$_82.jpg,https://link.marktplaats.nl/m2177203449,51.918736982672,6.3690151186193,225.0,Ophalen of Verzenden,13 okt 24,Ophalen of Verzenden,Piet,False,
m2172537979,Mamiya ZE met Mamiya secor50 mm 1;1.7 lens camera,Deze camera is in zeer mooie staat hij werkt alleen de zelf ontspanner moet soms worden geholpen de camera heeft een uv filter en ,https://images.marktplaats.com/api/v1/listing-mp-p/images/22/220328b5-cff6-4025-acd9-b2c797fa41d8?rule=ecg_mp_eps$_82.jpg,https://link.marktplaats.nl/m2172537979,52.678292465632,4.8498024643326,0.0,Ophalen of Verzenden,6 okt 24,Ophalen of Verzenden,Henk,False,
m2177821575,Manual instructieboekje Mamiya 645 1000s,Manual instructieboekje mamiya 645 1000s,https://images.marktplaats.com/api/v1/listing-mp-p/images/07/0723cad7-a792-41f9-b94d-1f6a24edb370?rule=ecg_mp_eps$_82.jpg,https://link.marktplaats.nl/m2177821575,52.411780226335,4.8899967199083,0.0,Ophalen of Verzenden,13 okt 24,Ophalen of Verzenden,Kees,False,
m2174071149,Twee analoge kleinbeeldcamera's met toebehorende,Twee analoge kleinbeeldcamera's voor film met bijbehorende accessoires bestaande uit: mamiya sekor camera 500 dtl met p- schro,https://images.marktplaats.com/api/v1/listing-mp-p/images/be/be53b82c-5bcc-4b1e-b053-5069f903fd85?rule=ecg_mp_eps$_82.jpg,https://link.marktplaats.nl/m2174071149,52.55007484664,4.91617517941,0.0,Ophalen,8 okt 24,Ophalen,Jobsis,False,
m2154450004,Mamiya 645E + Sekor C 80mm f2.8,"Mamiya 645e in perfect condition as recently fully serviced. Body outside in good condition too, no big scratches whatsoever. Come",https://images.marktplaats.com/api/v1/listing-mp-p/images/92/92d481f6-c539-461b-9be9-ed9ccd2bd1ed?rule=ecg_mp_eps$_82.jpg,https://link.marktplaats.nl/m2154450004,52.340810304376,4.9022666810522,525.0,Ophalen of Verzenden,4 sep 24,Ophalen of Verzenden,Justus de Rode,False,
m2172501077,Mamiya 135 Analoge fotocamera,Alleen ophalen,https://images.marktplaats.com/api/v1/listing-mp-p/images/ae/ae3c8c4d-afe4-4eca-9afb-a3ff3f1a25eb?rule=ecg_mp_eps$_82.jpg,https://link.marktplaats.nl/m2172501077,53.230921607217,6.5297900144432,30.0,Ophalen,6 okt 24,Ophalen,de vries,False,
m2168120499,Mamiya 645 + 80mm f2.8 and 150mm f4,"Great conditions, bought from fotohandel with the 80mm. The 150mm was bought from b&h in new york.",https://images.marktplaats.com/api/v1/listing-mp-p/images/92/92a70aff-9455-432c-96ee-6954b50dccba?rule=ecg_mp_eps$_82.jpg,https://link.marktplaats.nl/m2168120499,52.378421463689,4.6301286801647,1100.0,Ophalen,30 sep 24,Ophalen,Kelly Rosa,False,
m2167592503,MAMIYA NC 1000s,Mamiya nc 1000s - uniek collectors item - werken en goede staat,https://images.marktplaats.com/api/v1/listing-mp-p/images/6f/6f04b3f6-6fc5-403e-bd35-3fd8dc46c6de?rule=ecg_mp_eps$_82.jpg,https://link.marktplaats.nl/m2167592503,52.314942671406,4.9781780157973,100.0,Verzenden,30 sep 24,Verzenden,Jurriaan,False,
m2157724548,"Mamiya RB67 Pro (inc. 90mm, 250mm, 2x back en koffer)",Bij deze mijn mamiya rb67 pro omdat ik alleen nog digitaal werk. Alleen alles in 1 te koop: - mamiya rb67 pro - 90mm 3.8 - 250Mm 4,https://images.marktplaats.com/api/v1/listing-mp-p/images/99/99c4f30a-4237-4247-b29a-fbd16f8815b6?rule=ecg_mp_eps$_82.jpg,https://link.marktplaats.nl/m2157724548,51.930721756553,4.460809787572,0.0,Ophalen,13 sep 24,Ophalen,Thomas,False,
m2143865351,Mamiya 645 Pro met CN 80mm en CN 150mm lens,"Nette mamiya 645 pro camera, jaar geleden nog verschillende rolletjes mee geschoten, sindsdien niet meer gebruikt (vandaar ook de ",https://images.marktplaats.com/api/v1/listing-mp-p/images/14/1482c866-38d9-4ac2-a004-ac9e8723629c?rule=ecg_mp_eps$_82.jpg,https://link.marktplaats.nl/m2143865351,51.874121607277,4.98776877475,900.0,Ophalen of Verzenden,5 aug 24,Ophalen of Verzenden,van Bladel,False,
m2165647269,Mamiya rangefinder camera,Goed werkende mamiya rangefinder camera,https://images.marktplaats.com/api/v1/listing-mp-p/images/ab/ab0c18cf-eb4f-4436-9177-2ca4d065f503?rule=ecg_mp_eps$_82.jpg,https://link.marktplaats.nl/m2165647269,53.201404990526,5.7893787382226,0.0,Ophalen of Verzenden,27 sep 24,Ophalen of Verzenden,ladresse,False,
m2173327035,"Mamiya- Sekor 500TL body (mist ""sluitertijden aanduiding"")",Spant en ontspant maar mist sluitertijden aanduiding op sluitertijden instelling (zie foto). Wordt verkocht als defect vandaar de ,https://images.marktplaats.com/api/v1/listing-mp-p/images/1a/1a64687d-0028-4ad2-a225-7336ada3db8a?rule=ecg_mp_eps$_82.jpg,https://link.marktplaats.nl/m2173327035,50.971321178746,5.976863775125,9.99,Ophalen of Verzenden,7 okt 24,Ophalen of Verzenden,wil,False,
m2149908218,Mamiya RZ67 + 65mm,"Works perfectly, very nice condition. One of the focus wheels is missing (see photo 4), hence the low price! The camera can be use",https://images.marktplaats.com/api/v1/listing-mp-p/images/21/21d127c4-4ef7-4c14-b4d7-ebcc9efb45bd?rule=ecg_mp_eps$_82.jpg,https://link.marktplaats.nl/m2149908218,50.848572436218,5.7059300409606,800.0,Ophalen,26 aug 24,Ophalen,Andrei Baicu,False,
m2154660668,Mamiya M645 Medium Format film camera,Mamiya m645 met een waist level viewfinder. Werkt naar behoren. Professionele camera van mamiya voor middelformaat film.,https://images.marktplaats.com/api/v1/listing-mp-p/images/c5/c52f6124-77a5-4b6d-a823-f1a475d8b368?rule=ecg_mp_eps$_82.jpg,https://link.marktplaats.nl/m2154660668,52.856519762954,6.9892334075379,0.0,Ophalen of Verzenden,5 sep 24,Ophalen of Verzenden,Jur,False,
m2146770101,Mamiya Rb67 professional,"Met een sector 1:3.8 F127mm lens alle lightseals vorig jaar vervangen, werkt zoals hij hoort. Met ingebouwde lichtmeter in de zoek",https://images.marktplaats.com/api/v1/listing-mp-p/images/3a/3adc4e94-383e-4a9e-b975-af35253f5a8d?rule=ecg_mp_eps$_82.jpg,https://link.marktplaats.nl/m2146770101,53.112765746593,6.2062357513807,750.0,Ophalen of Verzenden,14 aug 24,Ophalen of Verzenden,SG,False,
m2139174692,Mamiya 645,"Nog steeds te koop ( 15.10.2024 ) Mamiya 645 en toebehoren ; - handgreep - 3 lenzen ( 55 mm , 80 mm , 150mm ) -filters - 2 zoekers",https://images.marktplaats.com/api/v1/listing-mp-p/images/ad/ad14351a-7292-4277-8927-f9803e91ebba?rule=ecg_mp_eps$_82.jpg,https://link.marktplaats.nl/m2139174692,52.004446357344,4.1589350679684,900.0,Ophalen of Verzenden,20 sep 24,Ophalen of Verzenden,Anna82,False,
m2165182259,Mamiya Press Universal met 2 film backs,Mamiya press universal camera met 6x9 casette en dark slide. Voor 120/220 rolfilm. Met 100 mm f3.5 Lens. Inclusief tweede casette ,https://images.marktplaats.com/api/v1/listing-mp-p/images/90/9083194f-8593-40e0-8799-2b892071bc40?rule=ecg_mp_eps$_82.jpg,https://link.marktplaats.nl/m2165182259,52.248260248382,6.1384939707298,950.0,Ophalen of Verzenden,26 sep 24,Ophalen of Verzenden,M/other in Art,False,
m2164652349,Medium format 3d print camera (6x7),Te koop is deze humby super 67 3d printed camera met: - mamiya pro s film back met dark slide - mamiya sekor p 75mm f5.6 F/5.6 Len,https://images.marktplaats.com/api/v1/listing-mp-p/images/e1/e13223df-dc5a-45b9-8cbd-02a2a15d59aa?rule=ecg_mp_eps$_82.jpg,https://link.marktplaats.nl/m2164652349,51.990885535418,4.4572894820744,475.0,Ophalen,29 sep 24,Ophalen,Jorgen,False,
m2138436678,Mamiya RB67 + 2 lenzen / 3 filmbacks / meer,"Ik doe mijn mamiya rb67 pro-s in de verkoop, in zo-goed-als-nieuwstaat, technisch én cosmetisch. Met 65mm en 127mm lens. Setje is ",https://images.marktplaats.com/api/v1/listing-mp-p/images/a4/a44725c5-5e28-4344-9db6-00c0d0ecc520?rule=ecg_mp_eps$_82.jpg,https://link.marktplaats.nl/m2138436678,52.158708616551,5.4069713785033,850.0,Ophalen,14 aug 24,Ophalen,Thijs,False,
m2136890557,Polaroid 600 SE Camera Fuji FP 100 Mamiya 127 Press Instant,Polaroid 600 se camera fuji fp 100 mamiya 127 press instant 600se prachtige camera! Vaste prijs! Sx70 sx 70 185 190 195,https://images.marktplaats.com/api/v1/listing-mp-p/images/32/3276fb29-1aa1-47f5-9112-1b4ae417a9ee?rule=ecg_mp_eps$_82.jpg,https://link.marktplaats.nl/m2136890557,52.623247346877,4.7399505349611,795.0,Ophalen of Verzenden,15 jul 24,Ophalen of Verzenden,HW,False,
m2144804838,Mamiya EE,Zeer nette en goed werkende mamiya ee. Met de originele hoes. Is altijd goed bewaard. De sluiter lijkt goed te werken,https://images.marktplaats.com/api/v1/listing-mp-p/images/48/48d77bc0-cf8d-4861-8cbe-76287a2c48ca?rule=ecg_mp_eps$_82.jpg,https://link.marktplaats.nl/m2144804838,52.051596470172,5.2359339443978,37.5,Verzenden,8 aug 24,Verzenden,Rowan,False,
m2178576885,mamiya myrapid camera fototoestel,Beste verkoop mamiya myrapid camera fototoestel prijs 15 interesse stuur me een berichtje zie ook eens mijn andere advertenties,https://images.marktplaats.com/api/v1/listing-mp-p/images/2e/2e1aac33-e7a2-438d-b788-3b1991829e45?rule=ecg_mp_eps$_82.jpg,https://link.marktplaats.nl/m2178576885,51.644083426564,5.2896558478237,15.0,Ophalen of Verzenden,14 okt 24,Ophalen of Verzenden,wendy,False,
m2121624386,Mamiya RZ67 izgs incl drie objectieven,"Deze mamiya rz67 is een puike set, in zeer goede staat!! En heeft de charme van het 6x7 opnameformaat, wat veel bekende fotografen",https://images.marktplaats.com/api/v1/listing-mp-p/images/8f/8fde1495-4f7a-4e3a-b242-415c12f68386?rule=ecg_mp_eps$_82.jpg,https://link.marktplaats.nl/m2121624386,52.141929040373,5.4364024401097,1470.0,Ophalen of Verzenden,14 sep 24,Ophalen of Verzenden,arnold,False,
m2151139996,Mamiya MYRAPID,In werkende staat. De conditie is gebruikt. Verzending op eigen risico.,https://images.marktplaats.com/api/v1/listing-mp-p/images/fe/fecd537d-9020-4b8a-8a6b-374d2e43804f?rule=ecg_mp_eps$_82.jpg,https://link.marktplaats.nl/m2151139996,52.506636811685,4.7612877838246,0.0,Ophalen of Verzenden,26 aug 24,Ophalen of Verzenden,de Zwarte,False,
m2141174786,"Mamiya C220 met instructieboekje, filmrollen",Mamiya c220 met instructieboekje en filmrollen en lichtmeter,https://images.marktplaats.com/api/v1/listing-mp-p/images/94/94386f3e-e85d-4596-8445-2a061b2d2bea?rule=ecg_mp_eps$_82.jpg,https://link.marktplaats.nl/m2141174786,51.800456439848,5.3263708076668,925.0,Ophalen of Verzenden,28 jul 24,Ophalen of Verzenden,Versteeg,False,
m2171071289,Mamiya ZE Quartz + 50mm F2 Lens (Leeuwarden),"Mamiya ze quartz met 50mm f2 lens de mamiya ze quartz is een geavanceerde 35mm spiegelreflexcamera uit de vroege jaren '80, on",https://images.marktplaats.com/api/v1/listing-mp-p/images/43/43a7269a-cbcb-4fe0-834b-0d80e16f67fc?rule=ecg_mp_eps$_82.jpg,https://link.marktplaats.nl/m2171071289,53.204613564997,5.8012066497565,99.0,Ophalen of Verzenden,4 okt 24,Ophalen of Verzenden,Foto-Groep Leeuwarden,False,
m2137368590,Mamiya M645,"Mamiya m645 analoge medium format camera. Hele mooie set. Inclusief: body 150mm 3.5 Lens, ook een erg fijne lens voor portretten. ",https://images.marktplaats.com/api/v1/listing-mp-p/images/ee/ee420a4b-367f-476a-b7ed-39c3f215a90f?rule=ecg_mp_eps$_82.jpg,https://link.marktplaats.nl/m2137368590,51.447916491516,5.4843462118613,370.0,Ophalen of Verzenden,16 jul 24,Ophalen of Verzenden,Sam,False,
m2176014721,Contax iiia + cz sonnar 50mm,"Zeiss ikon contax iiia in uitstekende staat. Alles werkt perfect (sluitertijden, lichtmeter etc. Zijn perfect accuraat). De lens i",https://images.marktplaats.com/api/v1/listing-mp-p/images/b6/b69e0e37-909d-43c3-b871-21f74741df1b?rule=ecg_mp_eps$_82.jpg,https://link.marktplaats.nl/m2176014721,52.670340385862,4.7671183037152,200.0,Ophalen of Verzenden,11 okt 24,Ophalen of Verzenden,TheWoekie,False,
m2144397966,Mamiya 645 Pro + 80 mm 1.9 + 45mm 2.8,Een mooie mamiya 645 pro te koop. Alles verkeerd in goede werkende staat en er is nog recent mee geschoten. Wat je krijgt mamiya 6,https://images.marktplaats.com/api/v1/listing-mp-p/images/14/14540a01-6b28-4667-b31c-365e8d54ca4f?rule=ecg_mp_eps$_82.jpg,https://link.marktplaats.nl/m2144397966,52.104435306771,4.2771444474937,0.0,Ophalen of Verzenden,7 aug 24,Ophalen of Verzenden,Nico,False,
m2162692641,MAMIYA C220,Mamiya,https://images.marktplaats.com/api/v1/listing-mp-p/images/3c/3caa0b50-43d0-452d-85bc-5c4c774b8873?rule=ecg_mp_eps$_82.jpg,https://link.marktplaats.nl/m2162692641,53.005316864747,6.5562719899786,0.0,Ophalen of Verzenden,23 sep 24,Ophalen of Verzenden,Martijn verheul fine line art,False,
m2153582514,Mamiya 645 pro set met twee objectieven en accessoires,Mamiya 645 pro body mamiya 80mm 1.9 Mamiya 45mm 2.8 Zoeker met lichtmeter winder grip waist-level finder 2x 120 film cassettes all,https://images.marktplaats.com/api/v1/listing-mp-p/images/25/254cc5e2-02eb-44ce-bbc0-18e08bcbb14a?rule=ecg_mp_eps$_82.jpg,https://link.marktplaats.nl/m2153582514,52.236246719959,6.9017826086082,1500.0,Ophalen,5 sep 24,Ophalen,Lex C.,False,
m2130814359,Zeer mooie Mamiya c220 met 65mm 3.5,Mamiya c220 6x6 middenformaat camera. Mamiya sekor 65mm f3.5 Lens. Hele goede staat. Ooit bij een speciaal zaak gekocht. Een paar ,https://images.marktplaats.com/api/v1/listing-mp-p/images/95/95efb0c4-d934-4ee9-926e-ec41ef674f65?rule=ecg_mp_eps$_82.jpg,https://link.marktplaats.nl/m2130814359,52.354259511226,4.8490134181176,450.0,Verzenden,28 jun 24,Verzenden,Rosendaal,False,
m2168651983,Mamiya RZ67 pro ii + lenses,Selling my camera that i had since 2019 due to me not using it much lately and wanting to pick up a hasselblad. The camera is work,https://images.marktplaats.com/api/v1/listing-mp-p/images/e4/e4678d8a-5b07-4946-9b4b-72bf6c289675?rule=ecg_mp_eps$_82.jpg,https://link.marktplaats.nl/m2168651983,51.439081154424,5.4708755753556,1200.0,Ophalen,2 okt 24,Ophalen,veniamin,False,
m2147733481,Mamiya Press Universal Analoog 6x9 120 220 Film Camera 6 x 9,Mamiya press universal analoog 6x9 120 220 film camera 6 x 9 100mm 100 medium format prachtige camera! Vaste prijs! Bij vragen kun,https://images.marktplaats.com/api/v1/listing-mp-p/images/d4/d4991ab6-cf6f-4a75-9bab-58caa4f1cd36?rule=ecg_mp_eps$_82.jpg,https://link.marktplaats.nl/m2147733481,52.623247346877,4.7399505349611,995.0,Ophalen of Verzenden,17 aug 24,Ophalen of Verzenden,HW,False,
m2173109719,Mamiya RZ67 220 film achterwand,"Achterwand voor 220 rolfilm rz67 mamiya, wegens overcompleet doe ik hem weg.",https://images.marktplaats.com/api/v1/listing-mp-p/images/e7/e7e4f45c-b55f-4ce7-b4f4-b32a7739f3b3?rule=ecg_mp_eps$_82.jpg,https://link.marktplaats.nl/m2173109719,52.32956840934,4.8123583095308,0.0,Ophalen of Verzenden,7 okt 24,Ophalen of Verzenden,Danielle,False,
m2161221941,Mamiya 645 Super (zeer goede staat),Op zoek naar een krachtige middenformaat camera? Ik verkoop mijn mamiya 645 super in goede staat. Deze camera is perfect voor zowe,https://images.marktplaats.com/api/v1/listing-mp-p/images/4b/4b3cad07-f7ac-444f-bcb3-b0a53ef06226?rule=ecg_mp_eps$_82.jpg,https://link.marktplaats.nl/m2161221941,51.933245093212,4.4666709091051,750.0,Ophalen of Verzenden,21 sep 24,Ophalen of Verzenden,Jordy Brada,False,
m2151046771,Mamiya RZ67 pro ii + 150mm f3.5 lens in zeer goede staat,"Ik verkoop mijn zeer geliefde mamiya rz pro ii inclusief viewfinder, 120 filmhouder en 150mm f3.5 Lens. De hele set is in uitsteke",https://images.marktplaats.com/api/v1/listing-mp-p/images/8b/8b80a38e-23d9-4c89-9361-288acf994f16?rule=ecg_mp_eps$_82.jpg,https://link.marktplaats.nl/m2151046771,52.082408939307,5.1282591883525,950.0,Ophalen,26 aug 24,Ophalen,Wouter,False,
m2148209575,Mamiya 645 + 80 mm lens & 150 mm lens,"Mamiya analoog camera, werkt nog top.",https://images.marktplaats.com/api/v1/listing-mp-p/images/b0/b0f5a3a1-7814-4d82-bc81-eed21d3d9af5?rule=ecg_mp_eps$_82.jpg,https://link.marktplaats.nl/m2148209575,52.081230431792,4.3287954821551,485.0,Ophalen,18 aug 24,Ophalen,Karima,False,
a1375635225,Hasselblad camera's en lenzen,Fotohandel delfshaven is sinds 2009 een unieke camera winkel met passie voor analoog. Onze camera's worden altijd uitvoerig ge,https://mp.images.icas.io/api/v1/a6519ad0/images/0c/0c9b8ec8-d842-4046-b26f-086d8e8943a1?rule=eps_82.JPG,https://link.marktplaats.nl/a1375635225,52.01310729980469,4.360111236572266,0.0,,18 aug 24,Gebruikt,Fotohandel Delfshaven,False,
m2147194272,Mamiya 645 1000S Camera.,Mamiya 645 1000s camera. Waist level finder camera met macro c 1:4 f 80mm.                                   Inclusief extra lens.,https://images.marktplaats.com/api/v1/listing-mp-p/images/94/9440a42e-cb68-4b13-9dfa-a1cc600397a0?rule=ecg_mp_eps$_82.jpg,https://link.marktplaats.nl/m2147194272,51.356307908546,4.3931145393876,900.0,Ophalen of Verzenden,15 aug 24,Ophalen of Verzenden,Petrus,False,
m2137585684,Mamiya 645,Mamiya 645 mamiya - sekor 80mm f2.8 Mamiya prisma zoeker mamiya grip met ontspanknop.  Hoewel de gebruikssporen functioneerd de ca,https://images.marktplaats.com/api/v1/listing-mp-p/images/83/830f5349-7453-465e-bea4-c5047d9da51a?rule=ecg_mp_eps$_82.jpg,https://link.marktplaats.nl/m2137585684,52.083609670408,5.0929397405953,500.0,Ophalen of Verzenden,20 jul 24,Ophalen of Verzenden,Oscar Brugman,False,
m2153176537,Mamiya sekor c 210mm,Zeer nette en werkend. Incl doppen kras en stof vrij. Komt van een m645.,https://images.marktplaats.com/api/v1/listing-mp-p/images/7f/7f7fa25b-bbfd-4837-a668-cb915c342576?rule=ecg_mp_eps$_82.jpg,https://link.marktplaats.nl/m2153176537,52.379791364918,6.482935695992,0.0,Ophalen of Verzenden,1 sep 24,Ophalen of Verzenden,the collector,False,
m2169459289,Mamiya analoge spiegelreflex camera met extra telelens,"Voor de liefhebber/verzamelaar: mamiya sekor 500 tl analoge spiegelreflex camera met 28-70 f3,5:4,5 sigma zoom objectief en tokina",https://images.marktplaats.com/api/v1/listing-mp-p/images/25/250ab5b2-17a9-427d-854c-0c9f2fd28a2c?rule=ecg_mp_eps$_82.jpg,https://link.marktplaats.nl/m2169459289,52.085463189676,6.0716826961793,75.0,Ophalen of Verzenden,2 okt 24,Ophalen of Verzenden,ron,False,
m2140486063,Mamiya RB67 Pro S with 90mm,Medium format analog camera in perfect working condition. Also selling a prism finder (€170). Pickup amsterdam.,https://images.marktplaats.com/api/v1/listing-mp-p/images/c6/c65f5d1b-035b-446a-9dd3-1ee65298a16d?rule=ecg_mp_eps$_82.jpg,https://link.marktplaats.nl/m2140486063,52.36042861027,4.9069615723103,800.0,Ophalen of Verzenden,26 jul 24,Ophalen of Verzenden,David,False,
m2135475146,Mamiya RB67 Pro -S,Te koop: mamiya rb67 pro-s + 6x4.5 Back prijs: 900€ alleen ophalen in tilburg,https://images.marktplaats.com/api/v1/listing-mp-p/images/df/df4f6edf-da5e-4212-8a9f-e12980ce2f0d?rule=ecg_mp_eps$_82.jpg,https://link.marktplaats.nl/m2135475146,51.545235377969,5.0742190503895,900.0,Ophalen,11 jul 24,Ophalen,Jan,False,
a1504298562,INKOOP: Oude analoge film cameras. Direct uitbetaald.,Analogue zoekt tweedehands camera's! Bij analogue zijn we gespecialiseerd in de inkoop van hoogwaardige tweedehands fotoappara,https://mp.images.icas.io/api/v1/a6519ad0/images/67/67df8b8d-ac2e-4daf-8cf6-2c6737ebc648?rule=eps_82.JPG,https://link.marktplaats.nl/a1504298562,52.371463775634766,4.903913974761963,0.0,,11 jul 24,Nieuw,Analogue Amsterdam,False,
m2140334980,Mamiya 645 J Sekor C 80mm 2.8,Ik heb een van mijn favoriete foto’s gemaakt met deze camera. Omdat ik ben overgestapt op een 6x9 camera ligt deze helaas stil en ,https://images.marktplaats.com/api/v1/listing-mp-p/images/a5/a5f81c9a-806c-4da3-b300-7a40285183bf?rule=ecg_mp_eps$_82.jpg,https://link.marktplaats.nl/m2140334980,52.296082265333,5.2352284262903,0.0,Verzenden,26 jul 24,Verzenden,Martin,False,
m2138704958,mamiya MSX500 met lenzen in 1 koop (300),Let op! Ophalen is in zundert. Versturen indien mogelijk is geen enkel probleem. U mag altijd vrijblijvend komen kijken in zundert,https://images.marktplaats.com/api/v1/listing-mp-p/images/97/9778ec31-8f96-44c3-92cc-2019974729e5?rule=ecg_mp_eps$_82.jpg,https://link.marktplaats.nl/m2138704958,51.578509947804,4.7331418789368,0.0,Ophalen of Verzenden,21 jul 24,Ophalen of Verzenden,ini,False,
m2142010437,"mamiya press, complete set. één universal en één super 23",Mamiya press. Twee bodies: één body mamiya press universal (voor polariod + polaroid cassete) één body mamiya press super 23 (met ,https://images.marktplaats.com/api/v1/listing-mp-p/images/b7/b707a249-815f-4fdf-8023-a82ac5cbb201?rule=ecg_mp_eps$_82.jpg,https://link.marktplaats.nl/m2142010437,52.3494394417,4.9091145065081,1000.0,Ophalen of Verzenden,31 jul 24,Ophalen of Verzenden,H&W,False,
a1000020499,Gezocht / aangeboden mooie Leica apparatuur,Secondhandcamera.nl is gespecialiseerd in mooie occasion fotoapparatuur. Dat betreft de merken: leica ( o.a. Leica m2 m3 m4 m5 m6 ,https://mp.images.icas.io/api/v1/a6519ad0/images/e7/e721ed2f-e839-4a0d-9506-34f14a7b5611?rule=eps_82.JPG,https://link.marktplaats.nl/a1000020499,52.33891677856445,4.917953968048096,0.0,Ophalen of Verzenden,31 jul 24,Ophalen of Verzenden,Secondhandcamera,False,
m2133657073,Polaroid 600 SE Instant Camera + Mamiya 127mm Lens 127,Polaroid 600 se instant camera + mamiya 127mm lens 127 600se fuji instax wide tegenwoordig kan je ze ook gebruiken met een instax ,https://images.marktplaats.com/api/v1/listing-mp-p/images/12/12ece38c-9003-44c1-94a3-89e8bf62ed29?rule=ecg_mp_eps$_82.jpg,https://link.marktplaats.nl/m2133657073,52.340281361353,4.898222512968,495.0,Ophalen of Verzenden,6 jul 24,Ophalen of Verzenden,Journe,False,
m2154211595,Mamiya RB67,Mamiya rb 67 set met 90mm 3.8 Body en back een goede staat. De lens moet schoongemaakt worden. Bij de prism finder zit een kleine ,https://images.marktplaats.com/api/v1/listing-mp-p/images/9c/9c52af39-80d4-4b49-9566-1a75a1a521dd?rule=ecg_mp_eps$_82.jpg,https://link.marktplaats.nl/m2154211595,52.529508861829,6.0888944825973,550.0,Ophalen of Verzenden,3 sep 24,Ophalen of Verzenden,LA,False,
m2169866747,Vintage Mamiya ZE-X spiegelreflexcamera met 2 lenzen,Te koop: vintage mamiya ze-x spiegelreflexcamera met 2 lenzen. Is uitgerust met de mamiya-sekor ef 1.7 50Mm 49 lens. Ook inbegrepe,https://images.marktplaats.com/api/v1/listing-mp-p/images/79/7999bc20-da7f-4f98-8a54-8dc253065064?rule=ecg_mp_eps$_82.jpg,https://link.marktplaats.nl/m2169866747,50.89208508281,6.0547967923353,0.0,Verzenden,2 okt 24,Verzenden,Bigv.,False,
m2136711809,Mamiya 645 (incl. koffer en accesoires),"Werkende mamiya 645 inclusief koffer en accesoires. Aangezien ik zelf niet genoeg heb van fotografie, verwijs ik je graag naar de ",https://images.marktplaats.com/api/v1/listing-mp-p/images/7b/7b1ec89d-976a-4602-aa13-b970bc20598d?rule=ecg_mp_eps$_82.jpg,https://link.marktplaats.nl/m2136711809,52.092703543099,5.0942663165778,999.0,Ophalen of Verzenden,14 jul 24,Ophalen of Verzenden,Tom,False,
m2180681613,Pentax ME,De pentax me en me super zijn de meest succesvolle 35mm slr's die pentax in productie had. Ze hebben een geweldige automatisch,https://images.marktplaats.com/api/v1/listing-mp-p/images/f7/f70238f2-b924-4420-83ff-fb8babd56b5f?rule=ecg_mp_eps$_82.jpg,https://link.marktplaats.nl/m2180681613,51.505786400416,5.4861098137793,0.0,Ophalen of Verzenden,Vandaag,Ophalen of Verzenden,Rovertje,False,
m2180532657,Pentax MZ-7 incl. 3 lenzen: 28-80 + 80-320 mm + MSCMacro 1.4,Zelden gebruikt. Aangeschaft net voordat de digitale camera’s kwamen.,https://images.marktplaats.com/api/v1/listing-mp-p/images/dc/dc9d3185-27c4-4a77-9117-5c6d2776359b?rule=ecg_mp_eps$_82.jpg,https://link.marktplaats.nl/m2180532657,51.902156766888,4.4891482561374,210.0,Ophalen of Verzenden,Vandaag,Ophalen of Verzenden,J,False,
m2180812431,Pentax Espio 110 pocketcamera (Film/analoog),Topcamera met ingebouwde flits en 38/110 mm zoom objectief.,https://images.marktplaats.com/api/v1/listing-mp-p/images/76/769de9ec-51df-45eb-8f61-0a003f0b4b9d?rule=ecg_mp_eps$_82.jpg,https://link.marktplaats.nl/m2180812431,52.301221429113,5.1417416446974,0.0,Ophalen,Vandaag,Ophalen,Roel,False,
m2180916607,Pentax ME 35 mm K- camera,Pentax me 35 mm camera +  1.7 50 Mm lens  vintage spiegelreflexcamera geweldige vintage pentax me-camera. De camerabody is in prim,https://images.marktplaats.com/api/v1/listing-mp-p/images/66/66c53959-0035-4636-8887-96905f9cf523?rule=ecg_mp_eps$_82.jpg,https://link.marktplaats.nl/m2180916607,50.973463421395,5.9322425966207,155.0,Ophalen,Vandaag,Ophalen,Peter hendrix,False,
a1025276459,"FOTOHANDEL DELFSHAVEN koopt ook in: oa. Leica, Nikon, Contax",Fotohandel delfshaven is een unieke winkel gespecialiseerd in de betere analoge fotoapparatuur. Wij hebben altijd een enorm aanbod,https://mp.images.icas.io/api/v1/a6519ad0/images/d8/d8d5b40d-bbcf-436b-af6b-b6267fc56641?rule=eps_82.JPG,https://link.marktplaats.nl/a1025276459,52.01310729980469,4.360111236572266,0.0,Ophalen,Vandaag,Ophalen,Fotohandel Delfshaven,False,
m2180926603,PENTAX ESPIO 115 analoog FOTOCAMERA,Pentax espio 115 analoog fotocamera,https://images.marktplaats.com/api/v1/listing-mp-p/images/61/61f0ac2e-827e-42c6-aebc-20e9868127ca?rule=ecg_mp_eps$_82.jpg,https://link.marktplaats.nl/m2180926603,51.805517208672,4.6620706291371,20.0,Ophalen of Verzenden,Vandaag,Ophalen of Verzenden,HANS SUPER 8 FILM,False,
m2180980731,meerdere analoge spiegelreflex camera's,"Meerdere analoge spiegelreflexcamera's beoordeeld door een goede fotograaf, maar geen garantie mogelijk voor cameras van 10 eu",https://images.marktplaats.com/api/v1/listing-mp-p/images/f8/f8bc0692-ef15-470d-84e4-e019b02f99b7?rule=ecg_mp_eps$_82.jpg,https://link.marktplaats.nl/m2180980731,52.0384963996,5.5617528749923,0.0,Ophalen of Verzenden,Vandaag,Ophalen of Verzenden,Dorcaswinkel Veenendaal,False,
m2180695845,Ricoh KR-30sp SLR + Vivitar 28-105 Macro Focusing Zoom,Deze geweldige jaren 80 camera is voorzien van nieuwe knoopcel en werkt 100%. Omdat deze ricoh gebruikt maakt van de pentax k-bajo,https://images.marktplaats.com/api/v1/listing-mp-p/images/60/607fae95-bb60-4b46-a1b1-8da595f36350?rule=ecg_mp_eps$_82.jpg,https://link.marktplaats.nl/m2180695845,52.039134504613,5.3006082196352,45.0,Ophalen of Verzenden,Vandaag,Ophalen of Verzenden,Theo,False,
m2180592181,Diverse retro fotocamera’s,"Retro fotocamera’s analoog en digitaal. Clack, ilford, pentax, ricoh, konica minolta, samsung, canon. Sommige met accessoires. Bij",https://images.marktplaats.com/api/v1/listing-mp-p/images/f3/f3cc139b-6a4a-45c3-af8a-bed73c8e7cc3?rule=ecg_mp_eps$_82.jpg,https://link.marktplaats.nl/m2180592181,51.530256308051,4.2801901507214,0.0,Ophalen of Verzenden,Vandaag,Ophalen of Verzenden,Ingrid,False,
m2180834117,2 mooie analoge objectieven - 28 en 50mm Pentax K vatting,Petri mc 28mm f2.8 Incl. Doppen in vrijwel nieuwstaat. Chinon 50mm f1.9 Incl. Doppen. Ook dit objectief heeft nauwelijks gebruikss,https://images.marktplaats.com/api/v1/listing-mp-p/images/91/9195abf8-005f-456c-bd63-91d801fc3c38?rule=ecg_mp_eps$_82.jpg,https://link.marktplaats.nl/m2180834117,53.280296466197,5.7008242078504,0.0,Ophalen of Verzenden,Vandaag,Ophalen of Verzenden,Piet Blokland,False,
m2180689399,"Pentax P30 slr + SMC Pentax A 1,7/50mm",Deze geweldige jaren 80/90 camera is voorzien van nieuwe knoopcel en werkt 100%. Lens is kras en schimmelvrij. Omdat deze pentax g,https://images.marktplaats.com/api/v1/listing-mp-p/images/22/225760d8-48ee-45d1-9016-1a5096e45fe8?rule=ecg_mp_eps$_82.jpg,https://link.marktplaats.nl/m2180689399,52.039134504613,5.3006082196352,95.0,Ophalen of Verzenden,Vandaag,Ophalen of Verzenden,Theo,False,
a1506753174,Olympus AF-10 Mini (30 dagen garantie),"Bekijk www.shutterisland.store voor betaalbare & unieke analoge camera’s de olympus af-10 mini, het kleine broertje in de af s",https://mp.images.icas.io/api/v1/a6519ad0/images/95/957d2088-4108-42c6-bb2f-a2e34df58a3f?rule=eps_82.JPG,https://link.marktplaats.nl/a1506753174,52.39744186401367,4.852382659912109,119.95,Verzenden,Vandaag,Verzenden,Shutter Island Camera's,False,
m2131827698,"Partij analoge camera,s / 554","Partij analoge camera,s 10 stuks in goede staat maar werking is onbekend. Kan per stuk of in 1 keer worden gekocht. De volgende me",https://images.marktplaats.com/api/v1/listing-mp-p/images/5c/5c25de83-5261-4005-b80c-6bf9e02200d0?rule=ecg_mp_eps$_82.jpg,https://link.marktplaats.nl/m2131827698,53.043688335768,5.9643317949385,200.0,Ophalen of Verzenden,1 jul 24,Ophalen of Verzenden,Deco en Zo,False,
m2180970523,Pentax Espio 200,"Nette werkende pentax espio met 48-200mm zoomlens. Logo staat niet meer op de voorkant, verder is de camera in nette staat. Flits ",https://images.marktplaats.com/api/v1/listing-mp-p/images/04/043cd82d-bfeb-45f3-a4e5-f357603e9871?rule=ecg_mp_eps$_82.jpg,https://link.marktplaats.nl/m2180970523,51.335373836915,5.4013243527417,30.0,Ophalen of Verzenden,Vandaag,Ophalen of Verzenden,Boris van Brakel,False,
m2176844943,PENTAX Zoom 90,Mooie analoge pentax zoom 90 fotocamera. Pentax 38 - 90 mm. Zoomlens. Autofocus. Macrostand. Diverse instelmogelijkheden. Werkt op,https://images.marktplaats.com/api/v1/listing-mp-p/images/06/060cb0bc-af28-47fe-8bc5-2ee1a717e253?rule=ecg_mp_eps$_82.jpg,https://link.marktplaats.nl/m2176844943,53.145848475546,6.5557279019999,60.0,Ophalen of Verzenden,12 okt 24,Ophalen of Verzenden,Klein,False,
m2176622577,Pentax efina /analoge camera,Uit een grote jarenlang gekoesterde verzameling: pentax efina ultra compacte groothoek aps camera origineel tasje puntgaaf,https://images.marktplaats.com/api/v1/listing-mp-p/images/9d/9df00799-5883-49af-97f5-4ea006f7e296?rule=ecg_mp_eps$_82.jpg,https://link.marktplaats.nl/m2176622577,52.738168101971,6.2829047224712,30.0,Ophalen of Verzenden,12 okt 24,Ophalen of Verzenden,Anneke,False,
m2178153043,Pentax Espio 738 analoge camera,Pentax espio 738 fotocamera technische gegevens: 38 - 70mm zoomlens autofocus systeem sluitertijden van 1/3s tot 1/320 sec. Lampmo,https://images.marktplaats.com/api/v1/listing-mp-p/images/79/79672202-51c2-4520-ae81-fa333516f097?rule=ecg_mp_eps$_82.jpg,https://link.marktplaats.nl/m2178153043,51.837932249561,4.1203871393583,95.0,Ophalen,14 okt 24,Ophalen,keha,False,
m2178376915,Pentax ME 50 mm,Sluiter klinkt goed verdere werking onbekend verzendkosten zijn voor de koper en verzenden is op eigen risico,https://images.marktplaats.com/api/v1/listing-mp-p/images/67/67469d13-c317-4359-9cc7-6a74ff531e31?rule=ecg_mp_eps$_82.jpg,https://link.marktplaats.nl/m2178376915,52.378442733327,4.6152424669834,0.0,Ophalen of Verzenden,14 okt 24,Ophalen of Verzenden,Liza,False,
m2177799437,Pentax zoom 70,"In werkende staat verkerende pentax zoom 70. Alles lijkt te werken behalve de flits ophalen en verzenden mogelijk, verzenden op ei",https://images.marktplaats.com/api/v1/listing-mp-p/images/d2/d2a7b324-b993-4d16-beb2-875d650341ea?rule=ecg_mp_eps$_82.jpg,https://link.marktplaats.nl/m2177799437,52.687042320607,6.1755179902313,0.0,Ophalen of Verzenden,13 okt 24,Ophalen of Verzenden,bastian,False,
m2177720905,"Pentax program A camera, 3 lenzen, flits en alle toebehoren","Pentax program a camera, 3 lenzen, flits en alle toebehoren. Zie foto’s.",https://images.marktplaats.com/api/v1/listing-mp-p/images/e8/e8700768-ca22-4c0e-9dfa-b97a1fc8db91?rule=ecg_mp_eps$_82.jpg,https://link.marktplaats.nl/m2177720905,52.82465954598,6.0619240331893,0.0,Ophalen of Verzenden,13 okt 24,Ophalen of Verzenden,van der Velde,False,
m2179776221,Pentax P30-camera met Takumar-A-zoom 28-80 mm,"Pentax p30-camera met takumar-a-zoom 28-80 mm f/3,5-4,5 in hele goede staat incl bauer ultrablitz flitser incl accessoires opbergt",https://images.marktplaats.com/api/v1/listing-mp-p/images/ff/ff7778b5-e751-481c-9969-cc32356ab292?rule=ecg_mp_eps$_82.jpg,https://link.marktplaats.nl/m2179776221,52.038010072372,5.0866824243372,35.0,Ophalen of Verzenden,Gisteren,Ophalen of Verzenden,bruno,False,
m2178901539,fotocamera Pentax spiegelreflex MG,Fotocamera pentax spiegelreflex mg compleet met 50mm lens. En 80-200 mm telelens,https://images.marktplaats.com/api/v1/listing-mp-p/images/79/792a3ff1-0884-4dd1-aa8a-d19e227f8079?rule=ecg_mp_eps$_82.jpg,https://link.marktplaats.nl/m2178901539,52.007446902402,4.7459820727313,45.0,Verzenden,Eergisteren,Verzenden,Bavon Outlet verkoop,False,
m2180204367,Pentax P5 met Sigma 28-70 3.5/4.5,Pentax p5 met sigma 28-70 3.5/4.5 Description: the pentax p5/p50 was the second of four p-series cameras; the first was the pentax,https://images.marktplaats.com/api/v1/listing-mp-p/images/9b/9b7b756e-7e0d-4d31-b2e0-ed702676797a?rule=ecg_mp_eps$_82.jpg,https://link.marktplaats.nl/m2180204367,52.78679041719,6.1121103274096,50.0,Ophalen of Verzenden,Gisteren,Ophalen of Verzenden,Jaap,False,
m2177954597,2 FOTO CAMERA'S,2 fotocamera s pentax +praktica prijs: 25 €,https://images.marktplaats.com/api/v1/listing-mp-p/images/37/37fdde75-6bc1-44ac-a5cb-ec71e6a74e93?rule=ecg_mp_eps$_82.jpg,https://link.marktplaats.nl/m2177954597,52.452378896912,4.5959268771618,25.0,Ophalen of Verzenden,14 okt 24,Ophalen of Verzenden,DICK,False,
m2177832523,Fotocamera Pentax MZ-50 met Pentax lens 28-80,"Fotocamera pentax mz-50 1 x pentax lens 28-80 bieden bekijk alle advertenties reactie via marktplaats verzenden op kosten 7,95 eur",https://images.marktplaats.com/api/v1/listing-mp-p/images/6e/6e66eba6-bcd9-46b3-913b-c5228ef699e5?rule=ecg_mp_eps$_82.jpg,https://link.marktplaats.nl/m2177832523,52.069495013234,4.5159622640665,0.0,Ophalen,13 okt 24,Ophalen,@ Sab @,False,
m2140071699,"Cosina CT-1A met externe flitser, draagtas en macrolens",Cosina ct-1a camera met bijbehoren,https://images.marktplaats.com/api/v1/listing-mp-p/images/43/4300830a-5518-4113-b5c2-9caa273439da?rule=ecg_mp_eps$_82.jpg,https://link.marktplaats.nl/m2140071699,51.875945915228,5.2405501913554,175.0,Ophalen of Verzenden,25 jul 24,Ophalen of Verzenden,VM,False,
m2174992391,Pentax espio115m  analoog camera,Pentax espio 115m camera. Deze heb ik overgenomen van mijn opa. Ik heb geen idee of hij nog werkt want er zit geen batterij in en ,https://images.marktplaats.com/api/v1/listing-mp-p/images/cb/cb0a09f7-e4df-4631-93c7-5f49ce4a5b65?rule=ecg_mp_eps$_82.jpg,https://link.marktplaats.nl/m2174992391,51.464886381889,5.4989508327313,42.0,Ophalen of Verzenden,9 okt 24,Ophalen of Verzenden,Femke,False,
m2177572389,Pentax Program A camera met extra lens/accessoires,"Werkende camera pentax program a (spiegelreflex) inclusief zonnekappen, extra lens in beschermkoker, draagband, statiefje, hoes en",https://images.marktplaats.com/api/v1/listing-mp-p/images/17/1765e7ac-3661-430e-91a7-ac62a635466a?rule=ecg_mp_eps$_82.jpg,https://link.marktplaats.nl/m2177572389,51.619550607784,4.7272223674304,45.0,Ophalen of Verzenden,13 okt 24,Ophalen of Verzenden,Heuvelberg,False,
m2177381503,Pentax P30 body 35mm film spiegelreflex + batterijen,"Zo lang de advertentie hier staat is het product te koop neem foto's op 35mm film in de herfst van familie, vrienden of pittor",https://images.marktplaats.com/api/v1/listing-mp-p/images/15/1507dc07-f0b1-4701-8a64-e5c7d9c9609b?rule=ecg_mp_eps$_82.jpg,https://link.marktplaats.nl/m2177381503,51.694776886936,3.7425852477311,100.0,Ophalen of Verzenden,13 okt 24,Ophalen of Verzenden,woke LGBTQIA+ propagandist,False,
m2178144141,Pentax P30-camera met Takumar-A-zoom 28-80 mm,"Pentax p30-camera met takumar-a-zoom 28-80 mm f/3,5-4,5 in hele goede staat incl bauer ultrablitz flitser incl accessoires opbergt",https://images.marktplaats.com/api/v1/listing-mp-p/images/40/402ae3b5-d990-4e5e-9f77-65112fc73a1f?rule=ecg_mp_eps$_82.jpg,https://link.marktplaats.nl/m2178144141,52.038010072372,5.0866824243372,35.0,Ophalen of Verzenden,14 okt 24,Ophalen of Verzenden,bruno,False,
m2176658577,"Analoge camera, Pentax Espio 160",Uit een grote dierbare verzameling: pentax espio 160 smc pentax zoomlens 38 mm-160 mm compacte analoge point and shoot camera,https://images.marktplaats.com/api/v1/listing-mp-p/images/b9/b99f3b32-e579-46f1-8307-4b99508462e3?rule=ecg_mp_eps$_82.jpg,https://link.marktplaats.nl/m2176658577,52.738168101971,6.2829047224712,50.0,Ophalen of Verzenden,12 okt 24,Ophalen of Verzenden,Anneke,False,
m2176742603,Pentax Espio 60S - analoge camera,Helemaal puntgaaf. Functioneren is gecontroleerd. Werkend te bezichtigen in arnhem of gent (be). Inclusief originele draagtas. Stu,https://images.marktplaats.com/api/v1/listing-mp-p/images/d1/d1f125ca-8121-4aa3-b3be-552dc2071393?rule=ecg_mp_eps$_82.jpg,https://link.marktplaats.nl/m2176742603,51.979864223376,5.9047923563597,55.0,Ophalen of Verzenden,12 okt 24,Ophalen of Verzenden,G.H.,False,
m2156867773,Vivitar lens en Tamron analoog,"1 vivitar telezoomlen 4,5-76mm-206 mm 1 tamron 2,8-28 mm lens oude nikon vatting beiden lenzen voor €30,00 excl, verzendkoste",https://images.marktplaats.com/api/v1/listing-mp-p/images/fa/fa7e7842-e34d-4904-8b88-d43ade10d05d?rule=ecg_mp_eps$_82.jpg,https://link.marktplaats.nl/m2156867773,51.938198290688,4.5948245068943,30.0,Ophalen of Verzenden,11 sep 24,Ophalen of Verzenden,heca,False,
m2178812671,"Pentax P30-camera met Takumar-A-zoom 28-80 mm F/3,5-4,5","Pentax p30-camera met takumar-a-zoom 28-80 mm f/3,5-4,5 in hele goede staat incl bauer ultrablitz flitser incl accessoires opbergt",https://images.marktplaats.com/api/v1/listing-mp-p/images/67/67450376-ee15-4e24-b5da-bd6257c219f5?rule=ecg_mp_eps$_82.jpg,https://link.marktplaats.nl/m2178812671,52.038010072372,5.0866824243372,35.0,Ophalen of Verzenden,Eergisteren,Ophalen of Verzenden,bruno,False,
m2179883647,Pentax spiegelreflex camera met lenz,Pentax spiegelreflex camera met lenz de camera is helaas defect bij de batterijen klap voor onderdelen en is compleet zie foto 3 e,https://images.marktplaats.com/api/v1/listing-mp-p/images/79/7991be4e-11df-40c0-a00c-7d6ae7e8eb66?rule=ecg_mp_eps$_82.jpg,https://link.marktplaats.nl/m2179883647,51.862382024921,5.8665440018631,25.0,Ophalen of Verzenden,Gisteren,Ophalen of Verzenden,Martina,False,
m2180386421,Pentax spiegelreflex camera analoog zoals op de foto,Pentax spiegelreflex camera compleet in koffer analoog met flitser en diverse lenzen in goede staat werkt zoals het hoort verzendk,https://images.marktplaats.com/api/v1/listing-mp-p/images/3e/3ede84a6-74fb-49c2-ad82-d5614d0d05d2?rule=ecg_mp_eps$_82.jpg,https://link.marktplaats.nl/m2180386421,51.568990994705,5.0683707921102,75.0,Ophalen of Verzenden,Gisteren,Ophalen of Verzenden,wva,False,
m2177648601,Pentax MZ-5 Camera analoog,Pentax mz-5 analoge camera. Incl. Extra lens. In nette conditie.,https://images.marktplaats.com/api/v1/listing-mp-p/images/42/421ad663-187a-4269-9537-120e3ede8198?rule=ecg_mp_eps$_82.jpg,https://link.marktplaats.nl/m2177648601,52.143103747265,5.4269244023043,70.0,Ophalen of Verzenden,13 okt 24,Ophalen of Verzenden,Martha,False,
m2175819733,Pentax 67 Set,Hierbij bied ik mijn pentax 67 te koop aan. Betreft een zeer complete set met daarin: - pentax 67 body (met bodydop) - pentax 67 l,https://images.marktplaats.com/api/v1/listing-mp-p/images/ef/ef195a5a-886f-494f-babe-4968614da1ea?rule=ecg_mp_eps$_82.jpg,https://link.marktplaats.nl/m2175819733,51.818477928539,4.6891592546117,0.0,Ophalen,11 okt 24,Ophalen,M. Duijs,False,
m2174819467,Te koop een analoog spiegelreflexcamera Pentax SF7,Nog een goede nette werkende analoog spiegelreflexcamera. Merk is een pentax sf7 diverse lenzen en een flitser. Ook zitten er dive,https://images.marktplaats.com/api/v1/listing-mp-p/images/ce/ce70f99d-3239-4bef-9714-324c8b53087c?rule=ecg_mp_eps$_82.jpg,https://link.marktplaats.nl/m2174819467,52.402488187727,5.2749095868563,100.0,Ophalen of Verzenden,9 okt 24,Ophalen of Verzenden,wouter,False,
m2180544161,Set camera's  lenzen  etc. Etc.,Set camera's lenzen etc. Etc. Canon ae-1 canon top twin kodak mini instamatic s30,https://images.marktplaats.com/api/v1/listing-mp-p/images/1e/1ed3bb9f-ca6f-4f3c-b2cc-b37910fffd70?rule=ecg_mp_eps$_82.jpg,https://link.marktplaats.nl/m2180544161,52.340519961121,5.1969532646277,0.0,Ophalen of Verzenden,Vandaag,Ophalen of Verzenden,huub,False,
m2174040081,"Pentax PC-50 autofocus 24x26mm camera, doos, tasje, papieren","Het opruimen van mijn bescheiden analoge camera verzameling gaat door, ik bied aan een als nieuwe pentax pc-50 kleinbeeld camera m",https://images.marktplaats.com/api/v1/listing-mp-p/images/78/7818386f-f4ef-4867-802f-ce593fe6de40?rule=ecg_mp_eps$_82.jpg,https://link.marktplaats.nl/m2174040081,51.760540359091,5.7845767347107,15.0,Ophalen,8 okt 24,Ophalen,Bagheera,False,
m2178330839,Pentax espio 70,Ik heb deze getest met batterij en deze werkt met flits ik woon en verzend vanuit belgië,https://images.marktplaats.com/api/v1/listing-mp-p/images/98/986a5d1a-9c6f-4abd-8793-7d50a8287c9d?rule=ecg_mp_eps$_82.jpg,https://link.marktplaats.nl/m2178330839,51.447700297282,4.929436502791,30.0,Ophalen of Verzenden,14 okt 24,Ophalen of Verzenden,yanvan,False,
m2177377635,pentax efina T met zoomlens en hier hoort een fimrolletje in,Pentax efina t met zoomlens en hier hoort een fimrolletje in en is dus wel degelijk een analoge camera,https://images.marktplaats.com/api/v1/listing-mp-p/images/52/52f170f1-7048-4a19-ad75-f045b7d26ecf?rule=ecg_mp_eps$_82.jpg,https://link.marktplaats.nl/m2177377635,52.504771232079,5.4858205399703,35.0,Ophalen of Verzenden,13 okt 24,Ophalen of Verzenden,henk.hilbrands,False,
m2179349347,Asai Pentax ME Super,Deze mooie oude camera werkt nog helemaal goed. Alle accesoires zoals een flitser en nog een extra groothoeklens krijg je er bij. ,https://images.marktplaats.com/api/v1/listing-mp-p/images/c3/c3b36226-86fa-4270-9381-d2456c348f73?rule=ecg_mp_eps$_82.jpg,https://link.marktplaats.nl/m2179349347,51.442323733333,5.4578823415755,0.0,Ophalen of Verzenden,Eergisteren,Ophalen of Verzenden,Will,False,
m2178483193,Pentax Espio 115;g,Espio 115 g ziet er nog heel goed uit !,https://images.marktplaats.com/api/v1/listing-mp-p/images/d8/d8f7d0f9-454a-4086-9620-6bf63b592825?rule=ecg_mp_eps$_82.jpg,https://link.marktplaats.nl/m2178483193,51.524040633622,4.4219036682898,0.0,Ophalen,14 okt 24,Ophalen,juma,False,
m2179158413,Pentax analoge camera set (mint!),"In perfecte werkende conditie, deze pentax me uit 1976-1978. Met 50 mm en 200 mm objectief, een set macroringen, flitser en leren ",https://images.marktplaats.com/api/v1/listing-mp-p/images/84/84f0311f-5ab2-4bdf-adf0-298d8fb317fb?rule=ecg_mp_eps$_82.jpg,https://link.marktplaats.nl/m2179158413,52.097050672017,6.6488916672614,85.0,Ophalen of Verzenden,Eergisteren,Ophalen of Verzenden,Lars Wormgoor,False,
m2175542225,Pentax Z70 analoge camera incl. paraat-tas,Zoomlens 35-80. De camera is in uitstekende conditie.,https://images.marktplaats.com/api/v1/listing-mp-p/images/7d/7d82dfba-336a-4a7a-847d-6bb685a45053?rule=ecg_mp_eps$_82.jpg,https://link.marktplaats.nl/m2175542225,51.120221485807,5.8734943533255,0.0,Ophalen,10 okt 24,Ophalen,a_cuijpers,False,
m2177689155,PENTAX ESPIO 60 S,"Mooie en goed werkende fotocamera meek pentax, model espio 10. Zoomlens 35/60mm. Ik verkoop dit omdat hem niet meer gebruik. De co",https://images.marktplaats.com/api/v1/listing-mp-p/images/54/54f16232-20e1-4421-b537-620995ada32d?rule=ecg_mp_eps$_82.jpg,https://link.marktplaats.nl/m2177689155,52.994796151292,6.5147899324221,0.0,Ophalen,13 okt 24,Ophalen,Henk,False,
m2178178331,Pentax 67 (6X7) originele houten grip,Original wooden grip voor pentax 67 (6x7) ophalen in rotterdam noord,https://images.marktplaats.com/api/v1/listing-mp-p/images/d0/d09fdd69-7195-4157-83ea-f21814115bc3?rule=ecg_mp_eps$_82.jpg,https://link.marktplaats.nl/m2178178331,51.94343498241,4.4699716248056,150.0,Ophalen,14 okt 24,Ophalen,Marlike,False,
m2178031817,Pentax ME camera met lenzen,Graag bieden naar waarde,https://images.marktplaats.com/api/v1/listing-mp-p/images/3c/3c47d756-3a92-44b5-9572-772a5db1f4e9?rule=ecg_mp_eps$_82.jpg,https://link.marktplaats.nl/m2178031817,52.091366239542,4.7597606964891,0.0,Ophalen of Verzenden,14 okt 24,Ophalen of Verzenden,RJ,False,
m2178955287,Pentax 35-80 mm F4/5.6,Weinig gebruikte standaard lens.ik verkoop dit omdat het over is.de conditie is gebruikt maar zeer weinig wordt geleverd met doos ,https://images.marktplaats.com/api/v1/listing-mp-p/images/94/946e1aaa-3769-4992-9385-bb05086e826e?rule=ecg_mp_eps$_82.jpg,https://link.marktplaats.nl/m2178955287,52.801713817064,6.8902961801187,0.0,Ophalen,Eergisteren,Ophalen,Frans,False,
m2178839385,Pentax z1 igst,"Let op werking onbekend. Is zonder accu erin bewaard, en daardoor is de batterij er niet bij. Ziet er verder netjes uit. Het kijk ",https://images.marktplaats.com/api/v1/listing-mp-p/images/1a/1a96024b-5676-4a06-aed3-c9a2b4dcef6a?rule=ecg_mp_eps$_82.jpg,https://link.marktplaats.nl/m2178839385,52.146428068282,4.4580508548698,50.0,Ophalen of Verzenden,Eergisteren,Ophalen of Verzenden,Michel,False,
m2177750241,Pentax spiegelreflexcamera aangeboden,"Analoge spiegelreflexcamera mg pentax met telezoom lens 80-200, sunpak flitser, blauwfilter en close up lens en adapter erbij. Zit",https://images.marktplaats.com/api/v1/listing-mp-p/images/59/59849095-cff6-4045-824a-352c92db3fda?rule=ecg_mp_eps$_82.jpg,https://link.marktplaats.nl/m2177750241,52.509936741831,4.6828325958039,0.0,Ophalen,13 okt 24,Ophalen,Lange,False,
m2179112433,Goed werkende Pentax KX (King PentaX),"Goed werkende, onlangs veelvuldig gebruikte pentax kx te koop. Een prachtig model! Het is een 35mm analoge spiegelreflexcamera gep",https://images.marktplaats.com/api/v1/listing-mp-p/images/b6/b612b67c-c524-44a7-87cb-5b4ee4dbc4b8?rule=ecg_mp_eps$_82.jpg,https://link.marktplaats.nl/m2179112433,51.950554623595,5.8355641511795,175.0,Ophalen of Verzenden,Eergisteren,Ophalen of Verzenden,Sebastian.,False,
m2179423205,Pentax Espio 738G fototoestel,Pentax espio 738g foto toestel .werkt prima met nieuw batterij en nieuw film rolletje.komt uit diervrij en rookvrij huis.ophalen o,https://images.marktplaats.com/api/v1/listing-mp-p/images/73/7315b8a6-4103-4828-a7fc-f9ea5adc9180?rule=ecg_mp_eps$_82.jpg,https://link.marktplaats.nl/m2179423205,52.292943137855,4.5854374403499,20.0,Ophalen,Eergisteren,Ophalen,Zara,False,
